[
  {
    "name": "衛生福利部南投醫院",
    "addr": "南投市復興路478號",
    "phone": "049-2243088",
    "lat": 23.91426289,
    "lon": 120.6849431
  },
  {
    "name": "南投縣信義鄉衛生所",
    "addr": "南投縣信義鄉玉山路45號",
    "phone": "049-279-1148#334",
    "lat": 23.69648747,
    "lon": 120.8547139
  },
  {
    "name": "南基醫院",
    "addr": "南投市中興路870號",
    "phone": "049-2225595",
    "lat": 23.89917022,
    "lon": 120.6838789
  },
  {
    "name": "新協合聯合診所",
    "addr": "南投市三和二路105號",
    "phone": "049-2222116",
    "lat": 23.90401867,
    "lon": 120.6868136
  },
  {
    "name": "水里社區基督聯合診所",
    "addr": "南投縣水里鄉中正路38號",
    "phone": "049-2775722",
    "lat": 23.81690886,
    "lon": 120.8547706
  },
  {
    "name": "竹山秀傳醫院",
    "addr": "南投縣竹山鎮集山路二段75號",
    "phone": "049-2624266",
    "lat": 23.80040038,
    "lon": 120.7139261
  },
  {
    "name": "安馨竹山內科診所",
    "addr": "南投縣竹山鎮集山路三段483號",
    "phone": "049-2630208",
    "lat": 23.76119041,
    "lon": 120.6928981
  },
  {
    "name": "瑞竹診所",
    "addr": "南投縣竹山鎮下坪里枋坪巷2-9號",
    "phone": "049-2649319",
    "lat": 23.76244271,
    "lon": 120.6811837
  },
  {
    "name": "益民診所",
    "addr": "南投縣竹山鎮集山路三段816之4號2樓",
    "phone": "049-2660639",
    "lat": 23.75952799,
    "lon": 120.6865264
  },
  {
    "name": "埔里榮民醫院",
    "addr": "南投縣埔里鎮榮光路1號",
    "phone": "049-2990833#8321",
    "lat": 23.97892905,
    "lon": 120.9943527
  },
  {
    "name": "埔里基督教醫院",
    "addr": "南投縣埔里鎮鐵山路1號2樓",
    "phone": "049-2915919",
    "lat": 23.97057474,
    "lon": 120.9468064
  },
  {
    "name": "金生診所",
    "addr": "南投縣埔里鎮西安路一段88號",
    "phone": "049-2423799",
    "lat": 23.96599039,
    "lon": 120.9660882
  },
  {
    "name": "佑民綜合醫院",
    "addr": "南投縣草屯鎮太平路一段200號",
    "phone": "049-2358151",
    "lat": 23.9608571,
    "lon": 120.6817979
  },
  {
    "name": "草屯陳診所",
    "addr": "南投縣草屯鎮太平路二段228號",
    "phone": "049-2380297",
    "lat": 23.97618106,
    "lon": 120.6839822
  },
  {
    "name": "中國醫藥大學附設草屯分院",
    "addr": "南投縣草屯鎮平等街140號",
    "phone": "049-2321188#6902",
    "lat": 23.98497444,
    "lon": 120.6859401
  },
  {
    "name": "曾漢棋綜合醫院",
    "addr": "曾漢棋綜合醫院",
    "phone": "049-2367927",
    "lat": 23.97882345,
    "lon": 120.6857272
  }
]