[
  {
    "name": "澄清綜合醫院",
    "addr": "台中市中區平等街139號",
    "phone": "04-24632000",
    "lat": 24.1426882,
    "lon": 120.6816883
  },
  {
    "name": "中國醫藥大學北港附設醫院",
    "addr": "台中市東區自由路三段296號",
    "phone": "04-22121058#2250",
    "lat": 24.1426882,
    "lon": 120.6816883
  },
  {
    "name": "兆揚內科診所",
    "addr": "台中市東區十甲路426號",
    "phone": "04-22121311#11",
    "lat": 24.1426882,
    "lon": 120.6816883
  },
  {
    "name": "台新醫院",
    "addr": "台中市東區振興路439-3號",
    "phone": "04-22139966",
    "lat": 24.1426882,
    "lon": 120.6816883
  },
  {
    "name": "中山醫學大學附設醫院",
    "addr": "台中市南區建國北路一段110號",
    "phone": "04-24739595",
    "lat": 24.1426882,
    "lon": 120.6816883
  },
  {
    "name": "中興醫院",
    "addr": "台中市南區復興路二段11號",
    "phone": "04-22621652",
    "lat": 24.1426882,
    "lon": 120.6816883
  },
  {
    "name": "民安診所",
    "addr": "台中市南區忠明南路787號2樓",
    "phone": "04-2262-0722",
    "lat": 24.1426882,
    "lon": 120.6816883
  },
  {
    "name": "衛生福利部台中醫院",
    "addr": "台中市西區三民路一段199號",
    "phone": "04-22294411",
    "lat": 24.1426882,
    "lon": 120.6816883
  },
  {
    "name": "中山醫學大學附設醫院中港分院",
    "addr": "台中市西區中港路一段23號",
    "phone": "04-22015111#66421",
    "lat": 24.1426882,
    "lon": 120.6816883
  },
  {
    "name": "佑全診所",
    "addr": "台中市西區五權路2-43號",
    "phone": "04-23725885",
    "lat": 24.1426882,
    "lon": 120.6816883
  },
  {
    "name": "宏安診所",
    "addr": "台中市西區林森路239號3樓",
    "phone": "04-23712588",
    "lat": 24.1426882,
    "lon": 120.6816883
  },
  {
    "name": "漢陽內科診所",
    "addr": "台中市西區建國路63號",
    "phone": "04-22256666",
    "lat": 24.1426882,
    "lon": 120.6816883
  },
  {
    "name": "世紀聯合門診崇安診所",
    "addr": "台中市西區健行路1056號2F",
    "phone": "04-23233223]",
    "lat": 24.1426882,
    "lon": 120.6816883
  },
  {
    "name": "佳福診所",
    "addr": "台中市西區民權路300號1F",
    "phone": "04-23011195",
    "lat": 24.1426882,
    "lon": 120.6816883
  },
  {
    "name": "中國醫藥大學附設醫院",
    "addr": "台中市北區育德路2號",
    "phone": "04-22052121#2093",
    "lat": 24.1426882,
    "lon": 120.6816883
  },
  {
    "name": "台安醫院雙十分院",
    "addr": "台中市北區雙十路二段29號",
    "phone": "04-22233063",
    "lat": 24.1426882,
    "lon": 120.6816883
  },
  {
    "name": "國軍台中總醫院中清院區",
    "addr": "台中市北區中忠明路500號",
    "phone": "04-22038148",
    "lat": 24.1426882,
    "lon": 120.6816883
  },
  {
    "name": "太原診所",
    "addr": "台中市北區太原路一段532號",
    "phone": "04-22064565",
    "lat": 24.1426882,
    "lon": 120.6816883
  },
  {
    "name": "文冠內科診所",
    "addr": "台中市北區學士路255號5樓",
    "phone": "04-22080199",
    "lat": 24.1426882,
    "lon": 120.6816883
  },
  {
    "name": "慶華診所",
    "addr": "台中市北區進化北路392號之3",
    "phone": "04-22375522",
    "lat": 24.1426882,
    "lon": 120.6816883
  },
  {
    "name": "聯安醫院",
    "addr": "台中市北屯區東山路一段37號",
    "phone": "04-22441995",
    "lat": 24.1426882,
    "lon": 120.6816883
  },
  {
    "name": "中清診所",
    "addr": "台中市北屯區中清路99-72號",
    "phone": "04-22919259",
    "lat": 24.1426882,
    "lon": 120.6816883
  },
  {
    "name": "榮曜診所",
    "addr": "台中市北屯區青島路四段46號",
    "phone": "04-22387838",
    "lat": 24.1426882,
    "lon": 120.6816883
  },
  {
    "name": "京冠診所",
    "addr": "台中市北屯區崇德路二段252號1F",
    "phone": "04-22471166",
    "lat": 24.1426882,
    "lon": 120.6816883
  },
  {
    "name": "台中榮民總醫院",
    "addr": "台中市西屯區中港路三段160號",
    "phone": "04-23592525#3050",
    "lat": 24.1426882,
    "lon": 120.6816883
  },
  {
    "name": "澄清綜合醫院中港院區",
    "addr": "台中市西屯區台中港路三段118號3樓",
    "phone": "04-24632000",
    "lat": 24.1426882,
    "lon": 120.6816883
  },
  {
    "name": "傑安內科診所",
    "addr": "台中市西屯區西屯路二段256巷6號B1-1",
    "phone": "04-24516322",
    "lat": 24.1426882,
    "lon": 120.6816883
  },
  {
    "name": "中科診所",
    "addr": "台中市西屯區福科路618號",
    "phone": "04-24627833",
    "lat": 24.1426882,
    "lon": 120.6816883
  },
  {
    "name": "大業診所",
    "addr": "台中市西屯區河南路4段195號",
    "phone": "04-22583300",
    "lat": 24.1426882,
    "lon": 120.6816883
  },
  {
    "name": "林新醫療社團法人林新醫院",
    "addr": "台中市南屯區惠中路3段36號12F",
    "phone": "04-22590277#208",
    "lat": 24.1426882,
    "lon": 120.6816883
  },
  {
    "name": "佳楊診所",
    "addr": "台中市南屯區黎明路一段938號",
    "phone": "04-23806555",
    "lat": 24.1426882,
    "lon": 120.6816883
  },
  {
    "name": "大墩診所",
    "addr": "台中市南屯區大墩路188號",
    "phone": "04-24717122",
    "lat": 24.1426882,
    "lon": 120.6816883
  },
  {
    "name": "國軍台中總醫院",
    "addr": "台中市太平區中山路二段348號",
    "phone": "04-23922141",
    "lat": 24.1426882,
    "lon": 120.6816883
  },
  {
    "name": "賢德醫院",
    "addr": "台中市太平區宜昌路420號8樓",
    "phone": "04-22766598",
    "lat": 24.1426882,
    "lon": 120.6816883
  },
  {
    "name": "榮平診所",
    "addr": "台中市太平區東平路513號1樓",
    "phone": "04-22766133",
    "lat": 24.1426882,
    "lon": 120.6816883
  },
  {
    "name": "仁愛醫療財團法人大里院區",
    "addr": "台中市大里區東榮路483號",
    "phone": "04-24819900#1712",
    "lat": 24.1426882,
    "lon": 120.6816883
  },
  {
    "name": "新菩提醫院",
    "addr": "台中市大里區中興路二段621號6F",
    "phone": "",
    "lat": 24.1426882,
    "lon": 120.6816883
  },
  {
    "name": "佳仁內科診所",
    "addr": "台中市大里區國光路二段500號3F",
    "phone": "04-24824066",
    "lat": 24.1426882,
    "lon": 120.6816883
  },
  {
    "name": "大里仁謙診所",
    "addr": "台中市大里區國光路2段500號3樓之1",
    "phone": "04-24822566",
    "lat": 24.1426882,
    "lon": 120.6816883
  },
  {
    "name": "欣仁診所",
    "addr": "台中市大里區東榮路501號",
    "phone": "04-24075266",
    "lat": 24.1426882,
    "lon": 120.6816883
  },
  {
    "name": "新菩提醫院",
    "addr": "台中市大里區西榮里中興路2段621號",
    "phone": "04-24832737",
    "lat": 24.1426882,
    "lon": 120.6816883
  },
  {
    "name": "長佑診所",
    "addr": "台中市霧峰區樹仁路36號",
    "phone": "04-23321661",
    "lat": 24.1426882,
    "lon": 120.6816883
  },
  {
    "name": "霧峰澄清醫院",
    "addr": "台中市霧峰區中正路1129號",
    "phone": "04-23396851",
    "lat": 24.1426882,
    "lon": 120.6816883
  },
  {
    "name": "本堂澄清醫院",
    "addr": "台中市霧峰區中正路718號7F",
    "phone": "04-23396534",
    "lat": 24.1426882,
    "lon": 120.6816883
  },
  {
    "name": "亞洲大學附屬醫院",
    "addr": "台中市霧峰區福新路222號",
    "phone": "04-37061-668#1330",
    "lat": 24.1426882,
    "lon": 120.6816883
  },
  {
    "name": "信安診所",
    "addr": "台中市烏日區中山路一段548號5F",
    "phone": "04-23377397",
    "lat": 24.1426882,
    "lon": 120.6816883
  },
  {
    "name": "烏日澄清醫院",
    "addr": "台中市烏日區光明路421號2樓",
    "phone": "04-23376232",
    "lat": 24.1426882,
    "lon": 120.6816883
  },
  {
    "name": "日欣診所",
    "addr": "台中市烏日區公園路242號1樓",
    "phone": "04-2338-6522",
    "lat": 24.1426882,
    "lon": 120.6816883
  },
  {
    "name": "烏日林新醫院",
    "addr": "台中市烏日區榮和路168號",
    "phone": "04-23388766",
    "lat": 24.1426882,
    "lon": 120.6816883
  },
  {
    "name": "衛生福利部豐原醫院",
    "addr": "台中市豐原區安康路100號",
    "phone": "04-25271180#2381",
    "lat": 24.1426882,
    "lon": 120.6816883
  },
  {
    "name": "中國醫藥大學附設醫院豐原醫務室",
    "addr": "台中市豐原區中正路193號",
    "phone": "04-25131680#250",
    "lat": 24.1426882,
    "lon": 120.6816883
  },
  {
    "name": "福平醫院",
    "addr": "台中市豐原區中正路71號6F",
    "phone": "04-25255013",
    "lat": 24.1426882,
    "lon": 120.6816883
  },
  {
    "name": "杏豐醫院",
    "addr": "台中市豐原區三民路106號8樓",
    "phone": "04-25157750",
    "lat": 24.1426882,
    "lon": 120.6816883
  },
  {
    "name": "興豐內科診所",
    "addr": "台中市豐原區三民路65號6樓",
    "phone": "04-25255822",
    "lat": 24.1426882,
    "lon": 120.6816883
  },
  {
    "name": "豐安醫院",
    "addr": "台中市豐原區中正路115號",
    "phone": "04-25251987",
    "lat": 24.1426882,
    "lon": 120.6816883
  },
  {
    "name": "三豐診所",
    "addr": "台中市豐原區中正路543號5樓",
    "phone": "04-25287379",
    "lat": 24.1426882,
    "lon": 120.6816883
  },
  {
    "name": "大順診所",
    "addr": "台中市豐原區北陽路138號1樓",
    "phone": "04-25250667",
    "lat": 24.1426882,
    "lon": 120.6816883
  },
  {
    "name": "仁德診所",
    "addr": "台中市豐原區中山路295號",
    "phone": "04-25278561",
    "lat": 24.1426882,
    "lon": 120.6816883
  },
  {
    "name": "健安內科診所",
    "addr": "台中市后里區甲后路333號3樓",
    "phone": "04-25586398",
    "lat": 24.1426882,
    "lon": 120.6816883
  },
  {
    "name": "東勢區農民醫院",
    "addr": "台中市東勢區豐勢路297號8F",
    "phone": "04-25770002",
    "lat": 24.1426882,
    "lon": 120.6816883
  },
  {
    "name": "東勢蔡外科診所",
    "addr": "台中市東勢區豐勢路510號",
    "phone": "04-25881231",
    "lat": 24.1426882,
    "lon": 120.6816883
  },
  {
    "name": "東福診所",
    "addr": "台中市東勢區中山路28號",
    "phone": "04-25770238",
    "lat": 24.1426882,
    "lon": 120.6816883
  },
  {
    "name": "東豐診所",
    "addr": "台中市東勢區豐勢路318號3樓",
    "phone": "04-25770032",
    "lat": 24.1426882,
    "lon": 120.6816883
  },
  {
    "name": "農安診所",
    "addr": "台中市東勢區豐勢路297號5樓",
    "phone": "04-25880201",
    "lat": 24.1426882,
    "lon": 120.6816883
  },
  {
    "name": "慈濟醫院台中分院",
    "addr": "台中市潭子區豐興路一段66號",
    "phone": "04-36060666#1290",
    "lat": 24.1426882,
    "lon": 120.6816883
  },
  {
    "name": "加安診所",
    "addr": "台中市潭子區雅潭路一段157號",
    "phone": "04-25318517",
    "lat": 24.1426882,
    "lon": 120.6816883
  },
  {
    "name": "淨新診所",
    "addr": "台中市潭子區中山路2段391巷5號5樓",
    "phone": "04-25337633",
    "lat": 24.1426882,
    "lon": 120.6816883
  },
  {
    "name": "清泉醫院",
    "addr": "台中市大雅區雅潭路178號",
    "phone": "04-25605600",
    "lat": 24.1426882,
    "lon": 120.6816883
  },
  {
    "name": "長安診所",
    "addr": "台中市大雅區民興街57號",
    "phone": "04-25609988",
    "lat": 24.1426882,
    "lon": 120.6816883
  },
  {
    "name": "雅林診所",
    "addr": "台中市大雅區神林南路633號",
    "phone": "04-25682374",
    "lat": 24.1426882,
    "lon": 120.6816883
  },
  {
    "name": "晉安診所",
    "addr": "台中市神岡區中山路906號",
    "phone": "04-25632666",
    "lat": 24.1426882,
    "lon": 120.6816883
  },
  {
    "name": "合安診所",
    "addr": "台中市大肚區沙田路二段780號5F",
    "phone": "04-26990505",
    "lat": 24.1426882,
    "lon": 120.6816883
  },
  {
    "name": "童綜合醫院沙鹿院區",
    "addr": "台中市沙鹿區成功西街8號",
    "phone": "04-26624688",
    "lat": 24.1426882,
    "lon": 120.6816883
  },
  {
    "name": "光田綜合醫院",
    "addr": "台中市沙鹿區沙田路117號",
    "phone": "04-26625111",
    "lat": 24.1426882,
    "lon": 120.6816883
  },
  {
    "name": "佳弘診所",
    "addr": "台中市沙鹿區七賢路29號1樓",
    "phone": "04-26625568",
    "lat": 24.1426882,
    "lon": 120.6816883
  },
  {
    "name": "宜家診所",
    "addr": "台中市沙鹿區光榮街94號10樓之3",
    "phone": "04-26629122",
    "lat": 24.1426882,
    "lon": 120.6816883
  },
  {
    "name": "育恩診所",
    "addr": "台中市龍井區遊園南路339-341號",
    "phone": "04-26528860",
    "lat": 24.1426882,
    "lon": 120.6816883
  },
  {
    "name": "童綜合醫院梧棲院區",
    "addr": "台中市梧棲區中棲路一段699號",
    "phone": "04-26581919",
    "lat": 24.1426882,
    "lon": 120.6816883
  },
  {
    "name": "安新診所",
    "addr": "台中市清水區中山路170號3樓",
    "phone": "04-26234416",
    "lat": 24.1426882,
    "lon": 120.6816883
  },
  {
    "name": "高美內科診所",
    "addr": "台中市清水區中山路94號5樓",
    "phone": "04-26235207",
    "lat": 24.1426882,
    "lon": 120.6816883
  },
  {
    "name": "李綜合醫院大甲分院",
    "addr": "台中市大甲區八德街2號",
    "phone": "04-26862288",
    "lat": 24.1426882,
    "lon": 120.6816883
  },
  {
    "name": "光田綜合醫院大甲分院",
    "addr": "台中市大甲區經國路321號",
    "phone": "04-26889138",
    "lat": 24.1426882,
    "lon": 120.6816883
  },
  {
    "name": "蔡精龍診所",
    "addr": "台中市大甲區新政路254號",
    "phone": "04-26875759",
    "lat": 24.1426882,
    "lon": 120.6816883
  },
  {
    "name": "仁禾診所",
    "addr": "台中市大甲區中山路一段861號",
    "phone": "04-26888106",
    "lat": 24.1426882,
    "lon": 120.6816883
  },
  {
    "name": "瑞東診所",
    "addr": "台中市南屯區文山三街133巷11號",
    "phone": "04-23892301",
    "lat": 24.1426882,
    "lon": 120.6816883
  },
  {
    "name": "長安醫院",
    "addr": "台中市太平區永平路一段9號",
    "phone": "04-31663166#3511, 3512",
    "lat": 24.1426882,
    "lon": 120.6816883
  }
]