[
  {
    "name": "衛生福利部台南醫院",
    "addr": "台南市中區中山路125號",
    "phone": "06-2200055",
    "lat": 22.99699437,
    "lon": 120.2090544
  },
  {
    "name": "十全診所",
    "addr": "台南市中區永福路二段3號",
    "phone": "06-2283106",
    "lat": 22.99045659,
    "lon": 120.2002705
  },
  {
    "name": "永和醫院",
    "addr": "台南市中區府前路一段304巷2號",
    "phone": "06-2231191",
    "lat": 22.9905291,
    "lon": 120.1988656
  },
  {
    "name": "康健內兒科診所",
    "addr": "台南市中西區健康路一段176號",
    "phone": "06-2146929",
    "lat": 22.98162174,
    "lon": 120.2068067
  },
  {
    "name": "光明內科診所",
    "addr": "台南市府前路一段80號",
    "phone": "06-2245555",
    "lat": 22.98927455,
    "lon": 120.2092082
  },
  {
    "name": "台灣基督教長老教會\n新樓醫療財團法人台南新樓醫院",
    "addr": "台南市東區東門路一段57號",
    "phone": "06-2748316#2054",
    "lat": 22.98919139,
    "lon": 120.2133327
  },
  {
    "name": "台南市立醫院",
    "addr": "台南市東區崇德路670號",
    "phone": "06-2609926",
    "lat": 22.96889357,
    "lon": 120.2268557
  },
  {
    "name": "立福內科診所",
    "addr": "台南市東區東門路三段73號",
    "phone": "06-2883537",
    "lat": 22.98001794,
    "lon": 120.2315466
  },
  {
    "name": "欣姿診所",
    "addr": "台南市東區東門路二段300號",
    "phone": "",
    "lat": 22.98398353,
    "lon": 120.2255126
  },
  {
    "name": "佳宜內科診所",
    "addr": "台南市東區大同路2段615號1樓",
    "phone": "06-2603020",
    "lat": 22.96777678,
    "lon": 120.2160655
  },
  {
    "name": "群安診所",
    "addr": "台南市東區東寧路263號",
    "phone": "06-2377919",
    "lat": 22.99074825,
    "lon": 120.2272158
  },
  {
    "name": "迦南內科診所",
    "addr": "台南市南區金華路一段32號",
    "phone": "06-2614718",
    "lat": 22.96254208,
    "lon": 120.1894962
  },
  {
    "name": "夏隣康合診所",
    "addr": "台南市南區健康路2段84號1樓",
    "phone": "06-2221203",
    "lat": 22.98166932,
    "lon": 120.1955709
  },
  {
    "name": "謝智超達恩診所",
    "addr": "台南市西門路二段375號3樓",
    "phone": "06-2285505",
    "lat": 22.99848335,
    "lon": 120.2001972
  },
  {
    "name": "郭綜合醫院",
    "addr": "台南市西區民生路二段18號",
    "phone": "06-2221111",
    "lat": 22.99505452,
    "lon": 120.1987238
  },
  {
    "name": "國立成功大學醫學院附設醫院",
    "addr": "台南市北區勝利路138號",
    "phone": "06-2353535#2591",
    "lat": 23.00199264,
    "lon": 120.2174954
  },
  {
    "name": "林建任內科診所",
    "addr": "台南市北區北安路一段291號",
    "phone": "06-2823988",
    "lat": 23.0200534,
    "lon": 120.2061101
  },
  {
    "name": "美侖診所",
    "addr": "台南市北區健康路二段237號",
    "phone": "06-2915730",
    "lat": 22.9816334,
    "lon": 120.190815
  },
  {
    "name": "陳冠文內科診所",
    "addr": "台南市北區小東路171號",
    "phone": "06-2752887",
    "lat": 23.00065074,
    "lon": 120.227148
  },
  {
    "name": "弘典內科診所",
    "addr": "台南市北區小東路323號",
    "phone": "06-2007588",
    "lat": 22.99946256,
    "lon": 120.2309262
  },
  {
    "name": "公園內科診所",
    "addr": "台南市北區公園路315號",
    "phone": "06-2229618",
    "lat": 23.00372667,
    "lon": 120.2100914
  },
  {
    "name": "文賢內科診所",
    "addr": "台南市文賢路629號1.2樓",
    "phone": "06-2502588",
    "lat": 23.01353416,
    "lon": 120.1937353
  },
  {
    "name": "福民內科診所",
    "addr": "台南市北區勝利路226號",
    "phone": "06-2748571",
    "lat": 23.0049744,
    "lon": 120.2190119
  },
  {
    "name": "育堂診所",
    "addr": "台南市安南區同安路1號2.3.4樓",
    "phone": "06-2477896",
    "lat": 23.03927747,
    "lon": 120.1881701
  },
  {
    "name": "榮銘內科診所",
    "addr": "台南市安南區海佃路一段120號",
    "phone": "06-2593109",
    "lat": 23.02318964,
    "lon": 120.1920183
  },
  {
    "name": "安南醫院",
    "addr": "台南市安南區長和路二段66號",
    "phone": "06-3553111",
    "lat": 23.06505345,
    "lon": 120.2228039
  },
  {
    "name": "財團法人奇美醫院",
    "addr": "台南市永康區中華路901號",
    "phone": "06-2812811",
    "lat": 23.02070807,
    "lon": 120.2218135
  },
  {
    "name": "永康榮民醫院",
    "addr": "台南市永康區復興路427號",
    "phone": "06-3125101",
    "lat": 22.99730639,
    "lon": 120.2403444
  },
  {
    "name": "昕安內科診所",
    "addr": "台南市永康區永大路二段1010-1012號",
    "phone": "06-2725237",
    "lat": 23.01760732,
    "lon": 120.2629489
  },
  {
    "name": "侯嘉修內科診所",
    "addr": "台南市永康區中山南路33號",
    "phone": "06-2027111",
    "lat": 23.01215649,
    "lon": 120.2268235
  },
  {
    "name": "華康內科診所",
    "addr": "台南市永康區中華路313號",
    "phone": "06-3130619",
    "lat": 23.00796592,
    "lon": 120.2342284
  },
  {
    "name": "顏大翔內科診所",
    "addr": "台南市永康區大灣路868號",
    "phone": "06-2054036",
    "lat": 23.00004863,
    "lon": 120.2565581
  },
  {
    "name": "杏福內科診所",
    "addr": "台南市永康區小東路509號",
    "phone": "06-312-6596",
    "lat": 22.99906076,
    "lon": 120.2357734
  },
  {
    "name": "懷仁內科診所",
    "addr": "台南市歸仁區中山路一段530號",
    "phone": "06-2303995",
    "lat": 22.96689543,
    "lon": 120.2957646
  },
  {
    "name": "陳相國聯合診所",
    "addr": "台南市新化區中山路491-1號",
    "phone": "06-5908869",
    "lat": 23.03591544,
    "lon": 120.3030478
  },
  {
    "name": "永德診所",
    "addr": "台南市新化區正新南路1號",
    "phone": "06-5801759",
    "lat": 23.03236903,
    "lon": 120.3064276
  },
  {
    "name": "崇仁內科診所",
    "addr": "台南市仁德區中山路515號",
    "phone": "06-2793311",
    "lat": 22.97146036,
    "lon": 120.2538194
  },
  {
    "name": "仁得內科診所",
    "addr": "台南市仁德區正義一街29號",
    "phone": "06-2496918#249",
    "lat": 22.97251256,
    "lon": 120.2526517
  },
  {
    "name": "滿福診所",
    "addr": "台南市關廟區南雄路二段500號",
    "phone": "06-5965500",
    "lat": 22.96784846,
    "lon": 120.3273669
  },
  {
    "name": "吉安醫院",
    "addr": "台南市關廟區中正路435號1樓",
    "phone": "06-6025606",
    "lat": 22.9672639,
    "lon": 120.3444489
  },
  {
    "name": "台灣基督教長老教會\n新樓醫療財團法人麻豆院區",
    "addr": "台南市麻豆區小埤里苓子林20號",
    "phone": "06-2748316#2054",
    "lat": 23.18044526,
    "lon": 120.2328573
  },
  {
    "name": "杏和診所",
    "addr": "台南市麻豆區新生北路26號",
    "phone": "06-5711883",
    "lat": 23.18579172,
    "lon": 120.2413158
  },
  {
    "name": "家佑診所",
    "addr": "台南市麻豆區晉江里信義路14之2號",
    "phone": "06-571-6513",
    "lat": 23.18547029,
    "lon": 120.2518187
  },
  {
    "name": "佳里醫療社團法人佳里醫院",
    "addr": "台南市佳里區興化里佳里興606號",
    "phone": "06-7264866",
    "lat": 23.1818778,
    "lon": 120.1837366
  },
  {
    "name": "以琳內科診所",
    "addr": "台南市佳里區建南街161號",
    "phone": "06-7211102",
    "lat": 23.15953954,
    "lon": 120.1767199
  },
  {
    "name": "新生醫院",
    "addr": "台南市佳里區新生路297號",
    "phone": "06-7233470",
    "lat": 23.16021135,
    "lon": 120.1756692
  },
  {
    "name": "佳新診所",
    "addr": "台南市學甲區華宗路448號",
    "phone": "06-7822330",
    "lat": 23.23478756,
    "lon": 120.1828322
  },
  {
    "name": "衛生福利部新營醫院",
    "addr": "台南市新營區信義街73號",
    "phone": "06-6351131",
    "lat": 23.30718322,
    "lon": 120.3147318
  },
  {
    "name": "營新醫院",
    "addr": "台南市新營區隋唐街228號",
    "phone": "06-6595617",
    "lat": 23.3086928,
    "lon": 120.2998897
  },
  {
    "name": "佑昇醫院",
    "addr": "台南市白河區民安路1號4樓",
    "phone": "06-6832955",
    "lat": 23.346513,
    "lon": 120.4112287
  },
  {
    "name": "安聯診所",
    "addr": "台南市白河區中路118號",
    "phone": "06-6852555",
    "lat": 23.35287379,
    "lon": 120.4167337
  },
  {
    "name": "財團法人奇美醫院柳營分院",
    "addr": "台南市柳營區太康村201號",
    "phone": "06-6226999",
    "lat": 23.29105524,
    "lon": 120.3256968
  },
  {
    "name": "錫和診所",
    "addr": "台南市鹽水區武廟路31號6F",
    "phone": "06-6528494",
    "lat": 23.32201445,
    "lon": 120.2656699
  },
  {
    "name": "蘇炳文內科診所",
    "addr": "台南市善化區大信路36號",
    "phone": "06-5811788",
    "lat": 23.13024721,
    "lon": 120.2925039
  },
  {
    "name": "沅林內科診所",
    "addr": "台南市善化區大成路291號",
    "phone": "06-5830538",
    "lat": 23.12989725,
    "lon": 120.2985455
  },
  {
    "name": "新仁內科診所",
    "addr": "台南市新市區中正路141號",
    "phone": "06-5898199",
    "lat": 23.07520595,
    "lon": 120.2913459
  },
  {
    "name": "尚禾內科診所",
    "addr": "台南市東山區中興南路59號1樓",
    "phone": "06-6805755",
    "lat": 23.32122348,
    "lon": 120.4031402
  }
]