[
  {
    "name": "台北榮民總醫院",
    "addr": "台北市北投區石牌路二段201號",
    "phone": "(02)2875-7028",
    "lat": 25.12216786,
    "lon": 121.5221867
  },
  {
    "name": "台大醫院",
    "addr": "台北市中正區中山南路7號",
    "phone": "(02)2312-3456",
    "lat": 25.04082353,
    "lon": 121.5190251
  },
  {
    "name": "市立聯合醫院和平院區",
    "addr": "台北市中正區中華路二段33號",
    "phone": "(02)2388-9595#2512",
    "lat": 25.03564604,
    "lon": 121.5070467
  },
  {
    "name": "紹毅內兒科診所",
    "addr": "台北市中正區八德路一段52號",
    "phone": "(02)2395-5111",
    "lat": 25.04408807,
    "lon": 121.5310933
  },
  {
    "name": "遠東聯合診所",
    "addr": "台北市中正區永綏街8號4F",
    "phone": "(02)2311-1525#401",
    "lat": 25.04317567,
    "lon": 121.5110367
  },
  {
    "name": "郵政醫院",
    "addr": "台北市中正區福州街14號",
    "phone": "(02)2395-6755#600",
    "lat": 25.02881788,
    "lon": 121.5188375
  },
  {
    "name": "三軍總醫院汀洲院區",
    "addr": "台北市中正區汀州路三段41號",
    "phone": "(02)27666738",
    "lat": 25.0194148,
    "lon": 121.526983
  },
  {
    "name": "匯安診所",
    "addr": "台北市中正區和平西路一段20號5樓",
    "phone": "(02)2363-7588#200",
    "lat": 25.02679553,
    "lon": 121.520863
  },
  {
    "name": "市立聯合醫院中興院區",
    "addr": "台北市大同區鄭州路145號",
    "phone": "(02)2555-3000",
    "lat": 25.05181519,
    "lon": 121.5092029
  },
  {
    "name": "和泰內科診所",
    "addr": "台北市大同區南京西路406號8樓",
    "phone": "(02)2559-0575",
    "lat": 25.05330881,
    "lon": 121.5099126
  },
  {
    "name": "台北馬偕醫院",
    "addr": "台北市中山區中山北路二段92號",
    "phone": "(02)2543-3535#3570",
    "lat": 25.06152431,
    "lon": 121.5221958
  },
  {
    "name": "安禾診所",
    "addr": "台北市中山區民權東路三段178號3樓",
    "phone": "(02)2713-7889",
    "lat": 25.06726219,
    "lon": 121.5498078
  },
  {
    "name": "宏林診所",
    "addr": "台北市中山區民生西路6號",
    "phone": "(02)2561-8979",
    "lat": 25.05793606,
    "lon": 121.5223251
  },
  {
    "name": "仁佑診所",
    "addr": "台北市中山區民權西路79號2樓",
    "phone": "(02)2598-0570",
    "lat": 25.06332023,
    "lon": 121.5194816
  },
  {
    "name": "怡仁診所",
    "addr": "台北市中山區中山北路一段82號5F",
    "phone": "(02)2581-5656",
    "lat": 25.04914236,
    "lon": 121.5209271
  },
  {
    "name": "元林診所",
    "addr": "台北市中山區吉林路239號3樓",
    "phone": "(02)2542-2508",
    "lat": 25.06213685,
    "lon": 121.5304478
  },
  {
    "name": "台北長庚醫院",
    "addr": "台北市松山區敦化北路199號9樓",
    "phone": "(02)2713-5211",
    "lat": 25.05765788,
    "lon": 121.5480088
  },
  {
    "name": "國軍松山總醫院",
    "addr": "台北市松山區健康路131號",
    "phone": "(02)2764-2151#671405",
    "lat": 25.05461597,
    "lon": 121.5577364
  },
  {
    "name": "安德診所",
    "addr": "台北市松山區八德路三段34號4樓",
    "phone": "(02)2570-5886",
    "lat": 25.04847644,
    "lon": 121.5519636
  },
  {
    "name": "台北秀傳醫院",
    "addr": "台北市松山區光復南路116巷1號",
    "phone": "(02)2781-6136",
    "lat": 25.04379929,
    "lon": 121.556918
  },
  {
    "name": "博仁綜合醫院",
    "addr": "台北市松山區光復北路66號10樓",
    "phone": "(02)2570-0806",
    "lat": 25.05082333,
    "lon": 121.5578659
  },
  {
    "name": "台安醫院",
    "addr": "台北市松山區八德路二段424號",
    "phone": "(02)2771-8151#2597",
    "lat": 25.04789672,
    "lon": 121.5474616
  },
  {
    "name": "祐腎內科診所",
    "addr": "台北市松山區南京東路四段50號8樓",
    "phone": "(02)2570-2368",
    "lat": 25.0518536,
    "lon": 121.5534792
  },
  {
    "name": "國泰醫院",
    "addr": "台北市大安區仁愛路四段280號",
    "phone": "(02)2708-2121#3171",
    "lat": 25.03715881,
    "lon": 121.5537965
  },
  {
    "name": "市立聯合醫院仁愛院區",
    "addr": "台北市大安區仁愛路四段10號",
    "phone": "(02)2709-3600#1301",
    "lat": 25.03793969,
    "lon": 121.5451167
  },
  {
    "name": "杏心診所",
    "addr": "台北市大安區金山南路段218號5F",
    "phone": "(02)2327-8799",
    "lat": 25.02920863,
    "lon": 121.5253704
  },
  {
    "name": "中山醫院",
    "addr": "台北市大安區仁愛路四段112巷11號",
    "phone": "(02)2708-1166#2280",
    "lat": 25.0367558,
    "lon": 121.5500182
  },
  {
    "name": "宏恩綜合醫院",
    "addr": "台北市大安區仁愛路四段61號",
    "phone": "(02)2771-3161#205",
    "lat": 25.03905589,
    "lon": 121.5469435
  },
  {
    "name": "中心診所",
    "addr": "台北市大安區忠孝東路四段77號",
    "phone": "(02)2751-0221#1727",
    "lat": 25.04259685,
    "lon": 121.5475677
  },
  {
    "name": "安仁診所",
    "addr": "台北市大安區安和路一段29號6樓",
    "phone": "(02)87733676",
    "lat": 25.03944623,
    "lon": 121.5503201
  },
  {
    "name": "羅斯福內科診所",
    "addr": "台北市大安區羅斯福路三段253號2樓",
    "phone": "(02)2369-4964",
    "lat": 25.01939766,
    "lon": 121.5301829
  },
  {
    "name": "皇家診所",
    "addr": "台北市大安區羅斯福路三段227號10樓",
    "phone": "(02)2369-1450",
    "lat": 25.01986149,
    "lon": 121.5297423
  },
  {
    "name": "仁濟醫院",
    "addr": "台北市萬華區廣州街243號10樓",
    "phone": "(02)2336-2430",
    "lat": 25.0370825,
    "lon": 121.4980614
  },
  {
    "name": "財團法人同仁院萬華醫院",
    "addr": "台北市萬華區中華路二段606巷6號",
    "phone": "(02)2305-9292#901",
    "lat": 25.02485459,
    "lon": 121.5099387
  },
  {
    "name": "西園醫院",
    "addr": "台北市萬華區西園路二段276號",
    "phone": "(02)2307-6968#1211",
    "lat": 25.02791079,
    "lon": 121.4945319
  },
  {
    "name": "萬澤內科診所",
    "addr": "台北市萬華區萬大路425-1號2-3樓",
    "phone": "(02)2339-7018",
    "lat": 25.02155192,
    "lon": 121.4987581
  },
  {
    "name": "台大醫院北護分院",
    "addr": "台北市萬華區康定路37號3樓",
    "phone": "(02)2371-7101#5069",
    "lat": 25.04242575,
    "lon": 121.5026625
  },
  {
    "name": "吳明修診所",
    "addr": "台北市萬華區中華路二段40號4F",
    "phone": "(02)2306-6466",
    "lat": 25.03407564,
    "lon": 121.5048044
  },
  {
    "name": "台北醫學大學附設醫院",
    "addr": "台北市信義區吳興街252號",
    "phone": "(02)2737-2181#1901",
    "lat": 25.0277333,
    "lon": 121.5631837
  },
  {
    "name": "松禾診所",
    "addr": "台北市信義區松山路130號3F",
    "phone": "(02)2766-6738",
    "lat": 25.04801228,
    "lon": 121.5774692
  },
  {
    "name": "佳康內科診所",
    "addr": "台北市信義區基隆路二段149號4樓",
    "phone": "(02)2738-4770",
    "lat": 25.02711557,
    "lon": 121.5555196
  },
  {
    "name": "市立聯合醫院陽明院區",
    "addr": "台北市士林區雨聲街105號",
    "phone": "(02)2835-3456",
    "lat": 25.10505494,
    "lon": 121.531576
  },
  {
    "name": "新光紀念醫院",
    "addr": "台北市士林區文昌路95號",
    "phone": "(02)2833-2211#2205",
    "lat": 25.09658997,
    "lon": 121.5209865
  },
  {
    "name": "百齡診所",
    "addr": "台北市士林區重慶北路四段187號2樓",
    "phone": "(02)2812-6892",
    "lat": 25.08449009,
    "lon": 121.5112915
  },
  {
    "name": "福林診所",
    "addr": "台北市士林區中山北路五段685號4樓",
    "phone": "(02)2831-4146",
    "lat": 25.09722449,
    "lon": 121.5272228
  },
  {
    "name": "怡德診所",
    "addr": "台北市士林區文林路342號6樓",
    "phone": "(02)2883-8099",
    "lat": 25.09486492,
    "lon": 121.5254668
  },
  {
    "name": "凱硯診所",
    "addr": "台北市士林區中山北路7段110號3樓",
    "phone": "(02)2876-2828",
    "lat": 25.12230075,
    "lon": 121.5319279
  },
  {
    "name": "關渡醫院",
    "addr": "台北市北投區知行路225巷12號",
    "phone": "(02)2858-7124",
    "lat": 25.12070311,
    "lon": 121.4662096
  },
  {
    "name": "承新診所",
    "addr": "台北市北投區北投路二段11號1F",
    "phone": "(02)2893-9833",
    "lat": 25.13097098,
    "lon": 121.4987747
  },
  {
    "name": "弘德診所",
    "addr": "台北市北投區雙全街66號2F",
    "phone": "(02)2890-8791",
    "lat": 25.13770739,
    "lon": 121.5006995
  },
  {
    "name": "振興醫療財團法人振興醫院",
    "addr": "台北市北投區振興街45號",
    "phone": "(02)2480-2481",
    "lat": 25.11753991,
    "lon": 121.5226035
  },
  {
    "name": "文林診所",
    "addr": "台北市北投區文林北路228號",
    "phone": "(02)2827-3690",
    "lat": 25.10929504,
    "lon": 121.5140298
  },
  {
    "name": "華榮診所",
    "addr": "台北市北投區承德路七段310號",
    "phone": "(02)2828-7070",
    "lat": 25.11766106,
    "lon": 121.50494
  },
  {
    "name": "和信醫院",
    "addr": "台北市北投區立德路125號",
    "phone": "(02)2897-0011#2594",
    "lat": 25.12884089,
    "lon": 121.4719245
  },
  {
    "name": "晟幸診所",
    "addr": "台北市北投區石牌路1段71巷19號",
    "phone": "(02)2826-1661",
    "lat": 25.11484616,
    "lon": 121.5107212
  },
  {
    "name": "崇德診所",
    "addr": "台北市北投區承德路7段310號1樓",
    "phone": "(02)2823-7682",
    "lat": 25.11734049,
    "lon": 121.5049293
  },
  {
    "name": "和新診所",
    "addr": "台北市北投區中央北路一段2號10樓",
    "phone": "(02)2897-0111",
    "lat": 25.13383608,
    "lon": 121.5014951
  },
  {
    "name": "三軍總醫院",
    "addr": "台北市內湖區成功路二段325號",
    "phone": "(02)8792-7134",
    "lat": 25.07334521,
    "lon": 121.5903189
  },
  {
    "name": "東成診所",
    "addr": "台北市內湖區民權東路六段495號2樓之1",
    "phone": "(02)2631-6850",
    "lat": 25.0746502,
    "lon": 121.6047927
  },
  {
    "name": "財團法人康寧醫院",
    "addr": "台北市內湖區成功路五段420巷26號",
    "phone": "(02)2634-8402",
    "lat": 25.07614334,
    "lon": 121.6089369
  },
  {
    "name": "洪永祥診所",
    "addr": "台北市內湖區成功路三段6巷1號",
    "phone": "(02)8791-7601",
    "lat": 25.07559954,
    "lon": 121.5899622
  },
  {
    "name": "心力合診所",
    "addr": "台北市內湖區民權東路六段169號",
    "phone": "(02)2791-3169",
    "lat": 25.06872124,
    "lon": 121.5961224
  },
  {
    "name": "中國醫藥大學附設醫院台北分院",
    "addr": "台北市內湖區內湖路二段360號",
    "phone": "(02)2791-9696#1990",
    "lat": 25.08231117,
    "lon": 121.5907221
  },
  {
    "name": "市立聯合醫院忠孝院區",
    "addr": "台北市南港區同德路87號",
    "phone": "(02)2786-1288#8311",
    "lat": 25.04679828,
    "lon": 121.5862023
  },
  {
    "name": "康禾診所",
    "addr": "台北市南港區忠孝東路7段551號1樓",
    "phone": "(02)2785-5629",
    "lat": 25.05333241,
    "lon": 121.6133843
  },
  {
    "name": "慶如診所",
    "addr": "台北市文山區萬慶街18號2樓",
    "phone": "(02)8931-1552",
    "lat": 24.99274864,
    "lon": 121.539802
  },
  {
    "name": "市立萬芳醫院",
    "addr": "台北市文山區興隆路三段111號",
    "phone": "(02)2930-7930#2701",
    "lat": 25.00020792,
    "lon": 121.558102
  },
  {
    "name": "景安診所",
    "addr": "台北市文山區羅斯福路六段136號2樓",
    "phone": "(02)2933-0551",
    "lat": 24.99692129,
    "lon": 121.5408497
  }
]
