[
  {
    "name": "衛生福利部台東醫院",
    "addr": "台東市五權街1號",
    "phone": "089-324112#339",
    "lat": 22.75727383,
    "lon": 121.1507506
  },
  {
    "name": "台東基督教醫院",
    "addr": "台東市開封街350號6樓",
    "phone": "089-960888#1631",
    "lat": 22.76405855,
    "lon": 121.1462787
  },
  {
    "name": "台東榮民醫院",
    "addr": "台東市更生路1000號",
    "phone": "089-222995#2009",
    "lat": 22.77261998,
    "lon": 121.1325811
  },
  {
    "name": "馬偕醫院台東分院",
    "addr": "台東市長沙街303巷1號",
    "phone": "089-310150#9",
    "lat": 22.75134177,
    "lon": 121.1408444
  },
  {
    "name": "陳明正內科診所",
    "addr": "台東市鄭州路3號3樓",
    "phone": "089-329405",
    "lat": 22.76183232,
    "lon": 121.1442267
  },
  {
    "name": "東興內科診所",
    "addr": "台東市四維路三段36號",
    "phone": "089-228678",
    "lat": 22.76622682,
    "lon": 121.1443187
  },
  {
    "name": "東興關山診所",
    "addr": "台東縣關山鎮德高里永豐48-2號",
    "phone": "089-931575",
    "lat": 23.09268322,
    "lon": 121.1773922
  },
  {
    "name": "衛生福利部臺東醫院成功分院",
    "addr": "台東縣成功鎮中山東路32號",
    "phone": "089-850438",
    "lat": 23.0995644,
    "lon": 121.3778589
  }
]