[
  {
    "name": "衛生福利部嘉義醫院",
    "addr": "嘉義市北港路312號",
    "phone": "05-2319090",
    "lat": 23.48126601,
    "lon": 120.4293106
  },
  {
    "name": "嘉義基督教醫院",
    "addr": "嘉義市忠孝路539號",
    "phone": "05-2765041",
    "lat": 23.49936225,
    "lon": 120.4501401
  },
  {
    "name": "安馨嘉義內科診所",
    "addr": "嘉義市友愛路239號",
    "phone": "05-2812525#200",
    "lat": 23.48419482,
    "lon": 120.4335339
  },
  {
    "name": "宏醫診所",
    "addr": "嘉義市民族路309號",
    "phone": "05-2254868",
    "lat": 23.47641002,
    "lon": 120.4529073
  },
  {
    "name": "民族聯合診所",
    "addr": "嘉義市民族路701號",
    "phone": "05-2276008#57",
    "lat": 23.47542942,
    "lon": 120.4427929
  },
  {
    "name": "蘇育諒聯合診所",
    "addr": "嘉義市民族路732號",
    "phone": "05-2251589",
    "lat": 23.47568542,
    "lon": 120.4425963
  },
  {
    "name": "正安診所",
    "addr": "嘉義市興業西路342號",
    "phone": "05-2856683",
    "lat": 23.46819935,
    "lon": 120.4378409
  },
  {
    "name": "嘉義榮民醫院",
    "addr": "嘉義市西區世賢路二段600號",
    "phone": "05-2359630",
    "lat": 23.46760111,
    "lon": 120.4230084
  },
  {
    "name": "祥太醫院",
    "addr": "嘉義市西區延平街490號",
    "phone": "05-2230398#221",
    "lat": 23.47622736,
    "lon": 120.4404711
  },
  {
    "name": "家馨診所",
    "addr": "嘉義市西區書院里民族路732號",
    "phone": "05-2251589",
    "lat": 23.475693,
    "lon": 120.442529
  },
  {
    "name": "陳仁德醫院",
    "addr": "嘉義市西區林森西路285號",
    "phone": "05-223-6921",
    "lat": 23.48037632,
    "lon": 120.4433235
  },
  {
    "name": "慶昇醫院",
    "addr": "嘉義市西區新榮路339號",
    "phone": "05-2220503",
    "lat": 23.48029152,
    "lon": 120.4439506
  },
  {
    "name": "聖馬爾定醫院",
    "addr": "嘉義市東區大雅路二段565號",
    "phone": "05-2756000#3615",
    "lat": 23.47639434,
    "lon": 120.4677812
  },
  {
    "name": "嘉義陽明醫院",
    "addr": "嘉義市東區吳鳳北路252號",
    "phone": "05-2253000",
    "lat": 23.48055255,
    "lon": 120.4535085
  },
  {
    "name": "華濟醫院",
    "addr": "嘉義縣太保市北港路二段601巷66號",
    "phone": "05-2373823",
    "lat": 23.5193309,
    "lon": 120.3670341
  },
  {
    "name": "衛生福利部朴子醫院",
    "addr": "嘉義縣朴子市永和里42-50號",
    "phone": "05-3790600",
    "lat": 23.46474125,
    "lon": 120.2347246
  },
  {
    "name": "嘉義長庚醫院",
    "addr": "嘉義縣朴子市嘉朴路西段6號",
    "phone": "05-3621000#2338",
    "lat": 23.46252985,
    "lon": 120.285966
  },
  {
    "name": "尚群診所",
    "addr": "嘉義縣朴子市海通路98-8號",
    "phone": "05-3708000",
    "lat": 23.46412715,
    "lon": 120.2403442
  },
  {
    "name": "上水診所",
    "addr": "嘉義縣朴子市山通路106號1樓",
    "phone": "05-3700368",
    "lat": 23.46630972,
    "lon": 120.2453402
  },
  {
    "name": "康明診所",
    "addr": "嘉義縣新港鄉大興村福德路18號",
    "phone": "05-3746980",
    "lat": 23.55682718,
    "lon": 120.3457576
  },
  {
    "name": "安聯診所",
    "addr": "嘉義縣民雄鄉建國路一段211號",
    "phone": "05-2265104",
    "lat": 23.56524801,
    "lon": 120.4344261
  },
  {
    "name": "慈安診所",
    "addr": "嘉義縣民雄鄉民溪路46號1樓",
    "phone": "05-2061555",
    "lat": 23.55872498,
    "lon": 120.4242048
  },
  {
    "name": "慈濟綜合醫院大林分院",
    "addr": "嘉義縣大林鎮平林里民生路2號",
    "phone": "05-2648000",
    "lat": 23.59619389,
    "lon": 120.4573307
  },
  {
    "name": "腎泰診所",
    "addr": "嘉義縣竹崎鄉灣橋村灣橋189號",
    "phone": "05-2793260",
    "lat": 23.49234318,
    "lon": 120.5030981
  },
  {
    "name": "維德診所",
    "addr": "嘉義縣水上鄉中興路560號5樓",
    "phone": "05-2685736",
    "lat": 23.54128829,
    "lon": 120.3846113
  }
]