[
  {
    "name": "佳基內科診所",
    "addr": "基隆市仁愛區劉銘傳路1-7號8樓",
    "phone": "(02)2421-5047",
    "lat": 25.12803297,
    "lon": 121.7510814
  },
  {
    "name": "元翔診所",
    "addr": "基隆市仁愛區忠二路55號3樓",
    "phone": "(02)2426-9402",
    "lat": 25.13078968,
    "lon": 121.7389609
  },
  {
    "name": "高士振診所",
    "addr": "基隆市仁愛區南榮路16-1號",
    "phone": "(02)2421-2288#2",
    "lat": 25.12606673,
    "lon": 121.7426225
  },
  {
    "name": "安基診所",
    "addr": "基隆市仁愛區愛五路34號5樓",
    "phone": "(02)2427-2345",
    "lat": 25.12897604,
    "lon": 121.7458935
  },
  {
    "name": "衛生福利部基隆醫院",
    "addr": "基隆市信義區信二路268號",
    "phone": "(02)2427-8891",
    "lat": 25.13051493,
    "lon": 121.7481076
  },
  {
    "name": "三總附設基隆服務處",
    "addr": "基隆市中正區正榮街100號",
    "phone": "(02)2463-3330#30501",
    "lat": 25.14480795,
    "lon": 121.7642335
  },
  {
    "name": "基隆長庚紀念醫院",
    "addr": "基隆市安樂區麥金路222號",
    "phone": "(02)2431-3131#3236",
    "lat": 25.12132951,
    "lon": 121.7223371
  },
  {
    "name": "台灣礦工醫院",
    "addr": "基隆市八堵區源遠路29號",
    "phone": "(02)2457-9101",
    "lat": 25.10811125,
    "lon": 121.7332806
  },
  {
    "name": "泰安內科診所",
    "addr": "基隆市七堵區明德一路93號1樓",
    "phone": "(02)2455-2305",
    "lat": 25.0984214,
    "lon": 121.7157531
  }
]