[
  {
    "name": "國立陽明大學附設醫院",
    "addr": "宜蘭市新民路152號",
    "phone": "(03)9325192#2211",
    "lat": 24.75800038,
    "lon": 121.7541755
  },
  {
    "name": "普仁健康診所",
    "addr": "宜蘭市民權路一段6號",
    "phone": "(03)9322317",
    "lat": 24.75251548,
    "lon": 121.7563137
  },
  {
    "name": "得安診所",
    "addr": "宜蘭市中山路三段152號5F",
    "phone": "(03)9325358",
    "lat": 24.75928395,
    "lon": 121.7530705
  },
  {
    "name": "青田診所",
    "addr": "宜蘭市舊城西路79號2F",
    "phone": "(03)9351291",
    "lat": 24.75953769,
    "lon": 121.7498646
  },
  {
    "name": "宜蘭松禾診所",
    "addr": "宜蘭市光復路48號10樓",
    "phone": "(03)932-3068",
    "lat": 24.75548436,
    "lon": 121.755831
  },
  {
    "name": "佛教普門醫院慢性病分院",
    "addr": "宜蘭縣員山鄉尚深路91號",
    "phone": "(03)9220292#264",
    "lat": 24.72165307,
    "lon": 121.7213089
  },
  {
    "name": "羅東聖母醫院",
    "addr": "宜蘭縣羅東鎮中正南路160號",
    "phone": "(03)9544106",
    "lat": 24.67203317,
    "lon": 121.7715952
  },
  {
    "name": "羅東博愛醫院",
    "addr": "宜蘭縣羅東鎮南昌路83號",
    "phone": "(03)9543131",
    "lat": 24.67206236,
    "lon": 121.7729363
  },
  {
    "name": "陳文貴診所",
    "addr": "宜蘭縣羅東鎮興東路118號",
    "phone": "(03)9550101",
    "lat": 24.68056965,
    "lon": 121.7693184
  },
  {
    "name": "吳得中診所",
    "addr": "宜蘭縣羅東鎮興東路118號3樓",
    "phone": "(03)9561122",
    "lat": 24.68058915,
    "lon": 121.7692969
  },
  {
    "name": "蘇澳榮民醫院",
    "addr": "宜蘭縣蘇澳鎮濱海路一段301號",
    "phone": "(03)9905106",
    "lat": 24.61666063,
    "lon": 121.8486776
  },
  {
    "name": "杏和醫院",
    "addr": "宜蘭縣礁溪鄉礁溪路4段129號",
    "phone": "(03)988-6996",
    "lat": 24.82085535,
    "lon": 121.7691017
  },
  {
    "name": "傳康診所",
    "addr": "宜蘭縣羅東鎮興東南路232號2樓",
    "phone": "(03)957-8119",
    "lat": 24.67466426,
    "lon": 121.7674419
  }
]