[
  {
    "name": "大武診所",
    "addr": "屏東市大武路23號",
    "phone": "08-7539100",
    "lat": 22.65639981,
    "lon": 120.4781436
  },
  {
    "name": "屏東基督教醫院",
    "addr": "屏東市大連路60號",
    "phone": "08-7363026",
    "lat": 22.68165456,
    "lon": 120.5012839
  },
  {
    "name": "寶建醫院",
    "addr": "屏東市中山路123號",
    "phone": "08-7665995#6123",
    "lat": 22.68171116,
    "lon": 120.4843212
  },
  {
    "name": "佳屏診所",
    "addr": "屏東市中正路207-1號1-3樓",
    "phone": "08-7339528",
    "lat": 22.68116896,
    "lon": 120.4913978
  },
  {
    "name": "林修哲內科診所",
    "addr": "屏東市中華路69號",
    "phone": "08-7325670",
    "lat": 22.67324918,
    "lon": 120.4901225
  },
  {
    "name": "國仁醫院",
    "addr": "屏東市民生東路12-2號",
    "phone": "08-7216057",
    "lat": 22.6586743,
    "lon": 120.514712
  },
  {
    "name": "復興醫院",
    "addr": "屏東市民生路147-3號",
    "phone": "08-7232323",
    "lat": 22.66877869,
    "lon": 120.4957316
  },
  {
    "name": "衛生福利部屏東醫院",
    "addr": "屏東市自由路270號",
    "phone": "08-7352800",
    "lat": 22.67353218,
    "lon": 120.4955847
  },
  {
    "name": "國軍高雄總醫院屏東分院",
    "addr": "屏東市龍華里大湖路58巷22號",
    "phone": "08-7560756",
    "lat": 22.63357674,
    "lon": 120.4877687
  },
  {
    "name": "宇安診所",
    "addr": "屏東市廣東路114號",
    "phone": "08-7217622",
    "lat": 22.67353768,
    "lon": 120.4998154
  },
  {
    "name": "藍文君診所",
    "addr": "屏東市廣東路396號",
    "phone": "08-8008077",
    "lat": 22.67863087,
    "lon": 120.5016176
  },
  {
    "name": "屏東復興醫院",
    "addr": "屏東市民生路147-3號",
    "phone": "08-7232323",
    "lat": 22.66875889,
    "lon": 120.4957424
  },
  {
    "name": "龍泉榮民醫院",
    "addr": "屏東縣內埔鄉龍潭村昭勝路安平一巷1號",
    "phone": "08-7704115",
    "lat": 22.67471528,
    "lon": 120.599109
  },
  {
    "name": "枋寮醫院",
    "addr": "屏東縣枋寮鄉中山路139號",
    "phone": "08-8789991",
    "lat": 22.3646635,
    "lon": 120.5965165
  },
  {
    "name": "輔英醫護專校附設醫院",
    "addr": "屏東縣東港鎮中山路5號",
    "phone": "08-8334409",
    "lat": 22.46555985,
    "lon": 120.4530413
  },
  {
    "name": "東港安泰醫院",
    "addr": "屏東縣東港鎮中正路一段210號",
    "phone": "08-8329966",
    "lat": 22.47432964,
    "lon": 120.4592153
  },
  {
    "name": "順泰診所",
    "addr": "屏東縣東港鎮沿海路173巷2號",
    "phone": "08-8337303",
    "lat": 22.47236041,
    "lon": 120.4636974
  },
  {
    "name": "恆春基督教醫院",
    "addr": "屏東縣恆春鎮恆西路21號",
    "phone": "08-8892293",
    "lat": 22.00255743,
    "lon": 120.7411206
  },
  {
    "name": "南門醫院",
    "addr": "屏東縣恆春鎮南門路10號",
    "phone": "08-8894568",
    "lat": 22.00117527,
    "lon": 120.7453779
  },
  {
    "name": "衛生福利部恒春旅遊醫院",
    "addr": "屏東縣恆春鎮恒南路188號",
    "phone": "08-8892704",
    "lat": 21.99954553,
    "lon": 120.7452756
  },
  {
    "name": "屏東縣琉球鄉衛生所",
    "addr": "屏東縣琉球鄉本福村中山路51號",
    "phone": "08-8612513",
    "lat": 22.34878259,
    "lon": 120.3786731
  },
  {
    "name": "人晟診所",
    "addr": "屏東縣潮州鎮中山路179號",
    "phone": "08-7801388",
    "lat": 22.54994677,
    "lon": 120.5372693
  },
  {
    "name": "立安診所",
    "addr": "屏東縣潮州鎮長興路2-7號",
    "phone": "08-7898711",
    "lat": 22.55174692,
    "lon": 120.5441649
  },
  {
    "name": "沐民診所",
    "addr": "屏東縣九如鄉九如路二段189號",
    "phone": "08-7396929",
    "lat": 22.73413576,
    "lon": 120.4889628
  },
  {
    "name": "德埔診所",
    "addr": "屏東縣內埔鄉東寧村平昌街7號",
    "phone": "08-7785156",
    "lat": 22.6187,
    "lon": 120.5655155
  },
  {
    "name": "宏祥診所",
    "addr": "屏東縣萬丹鄉中興路2段370號",
    "phone": "08-7770558",
    "lat": 22.57948041,
    "lon": 120.4849936
  },
  {
    "name": "人晟診所",
    "addr": "屏東縣潮州鎮中山路179號",
    "phone": "08-7801388",
    "lat": 22.54995667,
    "lon": 120.5372693
  },
  {
    "name": "東和內科診所",
    "addr": "屏東縣潮州鎮延平路149號",
    "phone": "08-7898812",
    "lat": 22.55537725,
    "lon": 120.5401943
  },
  {
    "name": "輔英科技大學附設醫院附設光復門診部",
    "addr": "屏東縣東港鎮光復路1段318號",
    "phone": "08-8327396",
    "lat": 22.46959971,
    "lon": 120.4553525
  },
  {
    "name": "屏東縣琉球鄉衛生所",
    "addr": "屏東縣琉球鄉本福村中山路51號",
    "phone": "08-8612513",
    "lat": 22.34896409,
    "lon": 120.3786987
  }
]