[
  {
    "name": "彰化基督教醫院",
    "addr": "彰化市南校路135號13樓",
    "phone": "04-7238595",
    "lat": 24.07582591,
    "lon": 120.5446261
  },
  {
    "name": "秀傳醫療社團法人秀傳紀念醫院",
    "addr": "彰化市中山路一段542號",
    "phone": "04-7238263",
    "lat": 24.06492953,
    "lon": 120.5377824
  },
  {
    "name": "信生醫院",
    "addr": "彰化市三民路312號",
    "phone": "04-7229907",
    "lat": 24.08606707,
    "lon": 120.5450679
  },
  {
    "name": "漢銘醫院",
    "addr": "彰化市中山路一段366號8樓",
    "phone": "04-7112773",
    "lat": 24.06153009,
    "lon": 120.5356674
  },
  {
    "name": "惠聖診所",
    "addr": "彰化市中正路一段432號",
    "phone": "04-7256530",
    "lat": 24.08284001,
    "lon": 120.5427001
  },
  {
    "name": "冠華醫院",
    "addr": "彰化市中正路一段437號",
    "phone": "04-7273111",
    "lat": 24.08278251,
    "lon": 120.5428241
  },
  {
    "name": "仁美診所",
    "addr": "彰化市彰美路一段186號9F",
    "phone": "04-7236773",
    "lat": 24.08929973,
    "lon": 120.5377916
  },
  {
    "name": "秀農診所",
    "addr": "彰化縣秀水鄉中山路328號",
    "phone": "04-7688213",
    "lat": 24.03524295,
    "lon": 120.501574
  },
  {
    "name": "彰化基督教醫院鹿基分院",
    "addr": "彰化縣鹿港鎮中正路480號",
    "phone": "04-7779595",
    "lat": 24.06111951,
    "lon": 120.438767
  },
  {
    "name": "財團法人彰濱秀傳紀念醫院",
    "addr": "彰化縣鹿港鎮鹿工路6號",
    "phone": "04-7813888",
    "lat": 24.07878483,
    "lon": 120.4106911
  },
  {
    "name": "溫建益醫院",
    "addr": "彰化縣鹿港鎮民權路126號7F",
    "phone": "04-7760176#71",
    "lat": 24.05753122,
    "lon": 120.4360915
  },
  {
    "name": "道周醫院",
    "addr": "彰化縣和美鎮和光路180號",
    "phone": "04-7566999",
    "lat": 24.11084481,
    "lon": 120.4918548
  },
  {
    "name": "建霖內科診所",
    "addr": "彰化縣和美鎮彰美路五段256號",
    "phone": "04-7558857",
    "lat": 24.11020139,
    "lon": 120.5005005
  },
  {
    "name": "員林何醫院",
    "addr": "彰化縣員林鎮民族街33號7F",
    "phone": "04-8320929",
    "lat": 23.95735529,
    "lon": 120.5705653
  },
  {
    "name": "員美診所",
    "addr": "彰化縣員林鎮員東路二段410號5F",
    "phone": "04-8367859",
    "lat": 23.95823169,
    "lon": 120.5792286
  },
  {
    "name": "健新內科診所",
    "addr": "彰化縣員林鎮新生路366號",
    "phone": "04-8336865",
    "lat": 23.96444438,
    "lon": 120.5687243
  },
  {
    "name": "員榮醫院",
    "addr": "彰化縣員林鎮中正路201號3F",
    "phone": "04-8351438",
    "lat": 23.95431111,
    "lon": 120.5749005
  },
  {
    "name": "慈元診所",
    "addr": "彰化縣員林鎮林森路250號",
    "phone": "04-8378805",
    "lat": 23.95936701,
    "lon": 120.5775639
  },
  {
    "name": "新安診所",
    "addr": "彰化縣員林鎮莒光路69號",
    "phone": "04-8352366",
    "lat": 23.95329224,
    "lon": 120.5663396
  },
  {
    "name": "彰化基督教醫院員林分院",
    "addr": "彰化縣員林鎮莒光路456號",
    "phone": "04-8381456#1890",
    "lat": 23.96314752,
    "lon": 120.5672243
  },
  {
    "name": "衛生福利部彰化醫院",
    "addr": "彰化縣埔心鄉舊館村中正路二段80號",
    "phone": "04-8298686",
    "lat": 23.95067901,
    "lon": 120.5273864
  },
  {
    "name": "佳安內科診所",
    "addr": "彰化縣溪湖鎮彰水路四段57號5樓",
    "phone": "04-8821305",
    "lat": 23.96072377,
    "lon": 120.4795728
  },
  {
    "name": "旭安診所",
    "addr": "彰化縣溪湖鎮文東街9號4樓",
    "phone": "04-8857665",
    "lat": 23.96239458,
    "lon": 120.4811201
  },
  {
    "name": "里仁診所",
    "addr": "彰化縣田中鎮公館路283號2樓",
    "phone": "04-8755097#20",
    "lat": 23.85393685,
    "lon": 120.5851289
  },
  {
    "name": "田安診所",
    "addr": "彰化縣田中鎮福安路250號",
    "phone": "04-8757733",
    "lat": 23.86314774,
    "lon": 120.5885769
  },
  {
    "name": "卓醫院",
    "addr": "彰化縣北斗鎮中山路一段311號3樓",
    "phone": "04-8871011",
    "lat": 23.87229043,
    "lon": 120.515466
  },
  {
    "name": "合濟醫院",
    "addr": "彰化縣北斗鎮中山路二段40號",
    "phone": "04-8870552",
    "lat": 23.87438297,
    "lon": 120.517993
  },
  {
    "name": "彰化基督教二林分院",
    "addr": "彰化縣二林鎮大成路558號",
    "phone": "04-8952031",
    "lat": 23.89986293,
    "lon": 120.3648792
  },
  {
    "name": "瑞林診所",
    "addr": "彰化縣二林鎮大成路一段302號",
    "phone": "04-8954406",
    "lat": 23.89776969,
    "lon": 120.368518
  }
]
