[
  {
    "name": "亞東紀念醫院",
    "addr": "新北市板橋區南雅南路2段21號",
    "phone": "(02)2954-6200",
    "lat": 24.99779997,
    "lon": 121.4531667
  },
  {
    "name": "德全醫院",
    "addr": "新北市板橋區民權路11號",
    "phone": "(02)2956-2803",
    "lat": 25.01036275,
    "lon": 121.462867
  },
  {
    "name": "中英醫院",
    "addr": "新北市板橋區文化路一段196號5樓",
    "phone": "(02)2256-3584#205",
    "lat": 25.02071331,
    "lon": 121.4661934
  },
  {
    "name": "陳尚志診所洗腎中心",
    "addr": "新北市板橋區文化路二段330號",
    "phone": "(02)8257-1133",
    "lat": 25.03341308,
    "lon": 121.4723474
  },
  {
    "name": "禾安診所",
    "addr": "新北市板橋區四川路一段269號1.2樓",
    "phone": "(02)2956-3236",
    "lat": 25.00235994,
    "lon": 121.4595793
  },
  {
    "name": "憲安診所",
    "addr": "新北市板橋區忠孝路19號7樓",
    "phone": "(02)8951-0916",
    "lat": 25.00230952,
    "lon": 121.4604177
  },
  {
    "name": "新北市聯合醫院板橋院區",
    "addr": "新北市板橋區英士路198號",
    "phone": "(02)2257-5151",
    "lat": 25.02786973,
    "lon": 121.4584374
  },
  {
    "name": "板新醫院",
    "addr": "新北市板橋區中正路189號",
    "phone": "02)2960-9955",
    "lat": 25.01701259,
    "lon": 121.4564086
  },
  {
    "name": "蕭中正醫院",
    "addr": "新北市板橋區南雅南路一段15-1號",
    "phone": "(02)2968-5661#222",
    "lat": 25.02258716,
    "lon": 121.4555098
  },
  {
    "name": "昕隆診所",
    "addr": "新北市板橋區民生路一段3號5樓",
    "phone": "(02)2950-0088",
    "lat": 25.01290233,
    "lon": 121.4759909
  },
  {
    "name": "仁謙診所",
    "addr": "新北市板橋區忠孝路102號",
    "phone": "(02)8953-6222",
    "lat": 25.0022738,
    "lon": 121.4620149
  },
  {
    "name": "佳愛診所",
    "addr": "新北市板橋區大觀路3段236號2樓之3",
    "phone": "(02)2683-6199",
    "lat": 24.99247486,
    "lon": 121.4295755
  },
  {
    "name": "板橋仁安內科診所",
    "addr": "新北市板橋區大觀路3段236號8樓之1",
    "phone": "(02)2675-0950",
    "lat": 24.99252592,
    "lon": 121.4293267
  },
  {
    "name": "世康診所",
    "addr": "新北市汐止區中興路86號3F",
    "phone": "(02)2641-0051",
    "lat": 25.06253736,
    "lon": 121.6348407
  },
  {
    "name": "國泰綜合醫院汐止分院",
    "addr": "新北市汐止區建成路59巷2號",
    "phone": "(02)2648-2121",
    "lat": 25.07276079,
    "lon": 121.6612294
  },
  {
    "name": "東暉診所",
    "addr": "新北市汐止區新興路3號8樓",
    "phone": "(02)2643-3774",
    "lat": 25.06610183,
    "lon": 2121.656378
  },
  {
    "name": "耕莘醫院",
    "addr": "新北市新店區中正路362號",
    "phone": "(02)2219-3391#65343",
    "lat": 24.97878212,
    "lon": 121.5349007
  },
  {
    "name": "國城診所",
    "addr": "新北市新店區北新路二段200號2F",
    "phone": "(02)7730-8200",
    "lat": 24.97698127,
    "lon": 121.5430519
  },
  {
    "name": "同仁醫院",
    "addr": "新北市新店區民權路89號6樓",
    "phone": "(02)2916-1700",
    "lat": 24.98293983,
    "lon": 121.5376716
  },
  {
    "name": "新店慈濟醫院",
    "addr": "新北市新店區建國路289號",
    "phone": "(02)6628-9779",
    "lat": 24.98640018,
    "lon": 121.5352761
  },
  {
    "name": "恩康診所",
    "addr": "新北市新店區寶中路88號3樓",
    "phone": "(02)2910-3051",
    "lat": 24.98066891,
    "lon": 121.5485198
  },
  {
    "name": "耕莘醫院安康院區",
    "addr": "新北市新店區車子路15號",
    "phone": "(02)2212-3066",
    "lat": 24.95389852,
    "lon": 121.5039295
  },
  {
    "name": "逸守診所",
    "addr": "新北市新店區民權路131號5樓",
    "phone": "(02)2218-6333",
    "lat": 24.98280473,
    "lon": 121.5352131
  },
  {
    "name": "逸安診所",
    "addr": "新北市新店區民權路133號4樓",
    "phone": "(02)2219-8333",
    "lat": 24.98279358,
    "lon": 121.5350475
  },
  {
    "name": "戴良恭診所",
    "addr": "新北市永和區中正路237號",
    "phone": "(02)2949-9482",
    "lat": 25.00102255,
    "lon": 121.5171268
  },
  {
    "name": "睿康診所",
    "addr": "新北市永和區中正路746號2樓",
    "phone": "(02)2232-6217",
    "lat": 25.01059455,
    "lon": 121.5149034
  },
  {
    "name": "永和耕莘醫院",
    "addr": "新北市永和區中興街80號",
    "phone": "(02)2925-1302",
    "lat": 25.01200012,
    "lon": 121.517876
  },
  {
    "name": "益康診所",
    "addr": "新北市永和區中正路455號9樓",
    "phone": "(02)2232-6216",
    "lat": 25.00598795,
    "lon": 121.517103
  },
  {
    "name": "睿康診所",
    "addr": "新北市永和市中正路742號2F",
    "phone": "(02)2232-6216",
    "lat": 25.01205694,
    "lon": 121.5158682
  },
  {
    "name": "衛生福利部雙和醫院",
    "addr": "新北市中和區中正路291號2樓",
    "phone": "(02)2249-0088#2700",
    "lat": 24.9928253,
    "lon": 121.4935152
  },
  {
    "name": "欣禾診所",
    "addr": "新北市中和區景平路416號",
    "phone": "(02)2949-3538",
    "lat": 24.9943636,
    "lon": 121.5079891
  },
  {
    "name": "承安聯合診所",
    "addr": "新北市中和區永貞路288號",
    "phone": "(02)3233-4601",
    "lat": 25.00446997,
    "lon": 121.5130324
  },
  {
    "name": "中祥醫院",
    "addr": "新北市中和區中山路二段140號2樓",
    "phone": "(02)2249-5883",
    "lat": 25.00344945,
    "lon": 121.5021326
  },
  {
    "name": "皇秦診所",
    "addr": "新北市中和區中山路3段39-1號1樓",
    "phone": "(02)2221-9825",
    "lat": 25.01015505,
    "lon": 121.4760652
  },
  {
    "name": "健新診所",
    "addr": "新北市中和區景新街338號5樓",
    "phone": "(02)2941-6178",
    "lat": 24.99093534,
    "lon": 121.5119535
  },
  {
    "name": "漳怡內科診所",
    "addr": "新北市中和區中和路59號3樓",
    "phone": "(02)2244-5222",
    "lat": 25.00149135,
    "lon": 121.5004394
  },
  {
    "name": "福星診所",
    "addr": "新北市中和區景平路694號5樓",
    "phone": "(02)2247-4125",
    "lat": 25.00256236,
    "lon": 121.497036
  },
  {
    "name": "元福診所",
    "addr": "新北市土城區明德路二段62號4F",
    "phone": "(02)8262-3313",
    "lat": 24.98355928,
    "lon": 121.4482727
  },
  {
    "name": "元佳診所",
    "addr": "新北市土城區中央路二段253.255號3樓",
    "phone": "(02)2266-1887",
    "lat": 24.97201961,
    "lon": 121.4401262
  },
  {
    "name": "廣泉診所",
    "addr": "新北市土城區清水路114號6樓",
    "phone": "(02)2274-0529",
    "lat": 24.98518944,
    "lon": 121.4586703
  },
  {
    "name": "恩樺醫院",
    "addr": "新北市土城區中央路一段7號11F",
    "phone": "(02)2263-0130",
    "lat": 24.99129177,
    "lon": 121.448942
  },
  {
    "name": "恩主公醫院",
    "addr": "新北市三峽區復興路399號",
    "phone": "(02)2672-3456",
    "lat": 24.93849223,
    "lon": 121.3628611
  },
  {
    "name": "慧安診所",
    "addr": "新北市三峽區文化路59號9F",
    "phone": "(02)2671-1230",
    "lat": 24.9363928,
    "lon": 121.3721332
  },
  {
    "name": "三禾診所",
    "addr": "新北市三峽區中華路13-5號4樓",
    "phone": "(02)2673-5708",
    "lat": 24.93219211,
    "lon": 121.3737004
  },
  {
    "name": "安旭診所",
    "addr": "新北市三峽區文化路59號8樓之1",
    "phone": "(02)8672-3525",
    "lat": 24.93678195,
    "lon": 121.3722297
  },
  {
    "name": "佳佑診所",
    "addr": "新北市三峽區中山路169巷2號2樓",
    "phone": "(02)2673-1320",
    "lat": 24.93622935,
    "lon": 121.3641961
  },
  {
    "name": "清福醫院",
    "addr": "新北市三峽區介壽路1段286號2樓",
    "phone": "(02)2673-9288#216",
    "lat": 24.9302823,
    "lon": 121.3798495
  },
  {
    "name": "樹林仁愛醫院",
    "addr": "新北市樹林區文化街9號9F",
    "phone": "(02)2687-4979",
    "lat": 24.98760157,
    "lon": 121.419936
  },
  {
    "name": "家祥診所",
    "addr": "新北市樹林區保安街一段54號",
    "phone": "(02)2681-2277",
    "lat": 24.99456981,
    "lon": 121.4255879
  },
  {
    "name": "松禾診所",
    "addr": "新北市樹林區鎮前街58號2樓",
    "phone": "(02)2685-1820",
    "lat": 24.99332699,
    "lon": 121.4256189
  },
  {
    "name": "幸安診所",
    "addr": "新北市鶯歌區仁愛路1號5F",
    "phone": "(02)8677-2238",
    "lat": 24.95708201,
    "lon": 121.3536393
  },
  {
    "name": "佳晟診所",
    "addr": "新北市鶯歌區建國路85號5樓",
    "phone": "(02)2677-5377",
    "lat": 24.95411327,
    "lon": 121.3530462
  },
  {
    "name": "新北市聯合醫院三重院區",
    "addr": "新北市三重區中山路2號",
    "phone": "(02)2982-9111#3310",
    "lat": 25.0615732,
    "lon": 121.4840139
  },
  {
    "name": "宏仁醫院",
    "addr": "新北市三重區三和路二段188號",
    "phone": "(02)2972-4212",
    "lat": 25.07561212,
    "lon": 121.49902
  },
  {
    "name": "康全診所",
    "addr": "新北市三重區三和路四段111-32號9F",
    "phone": "(02)2287-8099",
    "lat": 25.07827093,
    "lon": 121.4859434
  },
  {
    "name": "德澤診所",
    "addr": "新北市三重區仁愛街717號",
    "phone": "(02)2857-6375#13",
    "lat": 25.08098621,
    "lon": 121.4825981
  },
  {
    "name": "仁暉診所",
    "addr": "新北市三重區重新路一段50號2樓",
    "phone": "(02)2972-9689",
    "lat": 25.06386358,
    "lon": 121.5028297
  },
  {
    "name": "江生診所",
    "addr": "新北市三重區重新路二段1號5樓",
    "phone": "(02)2986-9156",
    "lat": 25.06333867,
    "lon": 121.4993999
  },
  {
    "name": "輝德診所",
    "addr": "新北市三重區重新路二段23號11樓",
    "phone": "(02)2971-5462",
    "lat": 25.06266281,
    "lon": 121.4980121
  },
  {
    "name": "佑民綜合醫院",
    "addr": "新北市三重區重新路二段2號9樓之2",
    "phone": "(02)2978-3456#2988",
    "lat": 25.06304395,
    "lon": 121.4999035
  },
  {
    "name": "仁馨診所",
    "addr": "新北市三重區龍門路1號5樓",
    "phone": "(02)2989-0808",
    "lat": 25.07117634,
    "lon": 121.4948843
  },
  {
    "name": "兆興診所",
    "addr": "新北市三重區中興北街19巷2號1樓",
    "phone": "(02)2999-6680#612",
    "lat": 25.04677658,
    "lon": 121.4699341
  },
  {
    "name": "富康診所",
    "addr": "新北市三重區重新路4段53號2樓",
    "phone": "(02))2988-6281",
    "lat": 25.05785697,
    "lon": 121.487656
  },
  {
    "name": "展源內科診所",
    "addr": "新北巿三重區重新路四段12號9樓",
    "phone": "(02)8976-2808",
    "lat": 25.0578521,
    "lon": 121.4887659
  },
  {
    "name": "衛生福利部台北醫院",
    "addr": "新北市新莊區思源路127號",
    "phone": "(02)2276-5566#2330",
    "lat": 25.06845617,
    "lon": 121.4850847
  },
  {
    "name": "思原內科診所",
    "addr": "新北市新莊區思源路48號2樓",
    "phone": "(02)299-70615",
    "lat": 25.04417907,
    "lon": 121.4605243
  },
  {
    "name": "新莊新仁醫院",
    "addr": "新北市新莊區中正路391號5樓",
    "phone": "(02)8201-0680#20",
    "lat": 25.03477356,
    "lon": 121.4455936
  },
  {
    "name": "新仁醫院",
    "addr": "新北市新莊區中正路395號6樓",
    "phone": "(02)2201-7212",
    "lat": 25.03490632,
    "lon": 121.4461793
  },
  {
    "name": "新泰綜合醫院",
    "addr": "新北市新莊區新泰路157號6樓",
    "phone": "(02)2996-2121#2600",
    "lat": 25.03706706,
    "lon": 121.447843
  },
  {
    "name": "祥佑診所",
    "addr": "新北市新莊區中安街7號3F",
    "phone": "(02)2992-7595",
    "lat": 25.0460351,
    "lon": 121.4527931
  },
  {
    "name": "新莊安庚內科診所",
    "addr": "新北市新莊區中港路306號3F",
    "phone": "(02)2277-9000",
    "lat": 25.04555997,
    "lon": 121.4527709
  },
  {
    "name": "新庚聯合診所",
    "addr": "新北市新莊區民安西路370號",
    "phone": "(02)2207-3228",
    "lat": 25.01080217,
    "lon": 121.4280005
  },
  {
    "name": "志豪診所",
    "addr": "新北市新莊區中港路279號",
    "phone": "(02)2272-2079",
    "lat": 25.04380915,
    "lon": 121.4533167
  },
  {
    "name": "安新診所",
    "addr": "新北市新莊區中正路145-22號",
    "phone": "(02)8993-1172",
    "lat": 25.03777746,
    "lon": 121.4584956
  },
  {
    "name": "杏原診所",
    "addr": "新北市新莊區建安街113號1樓",
    "phone": "(02)2206-0223",
    "lat": 25.02414189,
    "lon": 121.4264053
  },
  {
    "name": "宏明診所",
    "addr": "新北市泰山區明志路1段108號3樓",
    "phone": "(02)8531-2868",
    "lat": 25.04580316,
    "lon": 121.4257706
  },
  {
    "name": "仁美診所",
    "addr": "新北市蘆洲區中正路371號1樓",
    "phone": "(02)2282-8807",
    "lat": 25.09090102,
    "lon": 121.4646546
  },
  {
    "name": "集賢內科診所",
    "addr": "新北市蘆州區集賢路356號",
    "phone": "(02)2288-6720",
    "lat": 25.08418178,
    "lon": 121.4806202
  },
  {
    "name": "仁川診所",
    "addr": "新北市蘆洲區長榮路410號1樓",
    "phone": "(02)2285-1058",
    "lat": 25.08816733,
    "lon": 121.4597187
  },
  {
    "name": "佳聖診所",
    "addr": "新北市蘆洲區中山一路129號6樓",
    "phone": "(02)228-56555",
    "lat": 25.08191374,
    "lon": 121.4757982
  },
  {
    "name": "集安診所",
    "addr": "新北市蘆洲區集賢路238號2樓",
    "phone": "(02)2282-5722",
    "lat": 25.09092989,
    "lon": 121.4825028
  },
  {
    "name": "怡安診所",
    "addr": "新北市淡水區中正東路一段59號",
    "phone": "(02)2621-5566",
    "lat": 25.20012917,
    "lon": 121.448077
  },
  {
    "name": "馬偕醫院淡水分院",
    "addr": "新北市淡水區民生路45號",
    "phone": "(02)2809-4671",
    "lat": 25.1392471,
    "lon": 121.4618923
  },
  {
    "name": "公祥醫院",
    "addr": "新北市淡水區英專路21巷25號",
    "phone": "(02)8631-6110",
    "lat": 25.17289126,
    "lon": 121.4448973
  },
  {
    "name": "匯康內科診所",
    "addr": "新北市淡水區中正東路二段121號2樓之2",
    "phone": "(02)2808-2698",
    "lat": 25.1503077,
    "lon": 121.4598814
  },
  {
    "name": "詠靜診所",
    "addr": "新北市深坑區北深路3段101號2樓",
    "phone": "(02)2662-1660",
    "lat": 25.00245067,
    "lon": 121.6057469
  },
  {
    "name": "台大醫院附設金山院區",
    "addr": "新北市金山區五湖村南勢51號",
    "phone": "(02)2498-9898",
    "lat": 25.21982516,
    "lon": 121.628399
  },
  {
    "name": "連江縣立醫院",
    "addr": "連江縣南竿鄉復興村217號",
    "phone": "(08)3625-114",
    "lat": 26.16114583,
    "lon": 119.948879
  }
]
