[
  {
    "name": "台大醫院附設新竹分院",
    "addr": "新竹市經國路442巷25號",
    "phone": "03-5326151",
    "lat": 24.81768795,
    "lon": 120.979993
  },
  {
    "name": "南門綜合醫院",
    "addr": "新竹市林森路20號",
    "phone": "03-5261122#926",
    "lat": 24.80238156,
    "lon": 120.9696423
  },
  {
    "name": "馬偕醫院新竹分院",
    "addr": "新竹市光復路二段690號",
    "phone": "03-6119595#3535",
    "lat": 24.80028465,
    "lon": 120.9907614
  },
  {
    "name": "國泰綜合醫院新竹分院",
    "addr": "新竹市中華路二段678號",
    "phone": "03-5278999#2651",
    "lat": 24.79847077,
    "lon": 120.9652642
  },
  {
    "name": "祥仁內科診所",
    "addr": "新竹市中華路三段9號",
    "phone": "03-5278651",
    "lat": 24.79719851,
    "lon": 120.9634385
  },
  {
    "name": "安慎診所",
    "addr": "新竹市中央路128號",
    "phone": "03-5359779",
    "lat": 24.80715482,
    "lon": 120.970924
  },
  {
    "name": "亞太診所",
    "addr": "新竹市光華街57號",
    "phone": "03-5427297",
    "lat": 24.81606219,
    "lon": 120.9721615
  },
  {
    "name": "宜暘診所",
    "addr": "新竹市經國路一段343-1號1F",
    "phone": "03-5352850",
    "lat": 24.81463375,
    "lon": 120.9809758
  },
  {
    "name": "成民內科診所",
    "addr": "新竹市東區科學園路5號2樓",
    "phone": "03-5787556",
    "lat": 24.78688522,
    "lon": 121.01014
  },
  {
    "name": "大安醫院",
    "addr": "新竹縣竹北市博愛街318巷6號",
    "phone": "03-5553420",
    "lat": 24.83500784,
    "lon": 121.0080836
  },
  {
    "name": "東元綜合醫院",
    "addr": "新竹縣竹北市縣政二路69號",
    "phone": "03-5527000#1651",
    "lat": 24.82384473,
    "lon": 121.0137647
  },
  {
    "name": "湖口仁慈醫院",
    "addr": "新竹縣湖口鄉忠孝路29號",
    "phone": "03-5993500",
    "lat": 24.90069025,
    "lon": 121.0455354
  },
  {
    "name": "成功診所",
    "addr": "新竹縣湖口鄉成功路346號1樓",
    "phone": "03-5990822",
    "lat": 24.90054918,
    "lon": 121.0401345
  },
  {
    "name": "竹東榮民醫院",
    "addr": "新竹縣竹東鎮中豐路一段81號",
    "phone": "03-5962134#335",
    "lat": 24.72308028,
    "lon": 121.0993276
  },
  {
    "name": "台大醫院竹東分院",
    "addr": "新竹縣竹東鎮至善路52號",
    "phone": "03-5943248",
    "lat": 24.71913829,
    "lon": 121.0932697
  },
  {
    "name": "竹東安慎診所",
    "addr": "新竹縣竹東鎮長安路113號",
    "phone": "03-5951011",
    "lat": 24.73594291,
    "lon": 121.0915017
  },
  {
    "name": "康健診所",
    "addr": "新竹縣竹東鎮中豐路二段341號",
    "phone": "03-5102916",
    "lat": 24.72559506,
    "lon": 121.0892222
  },
  {
    "name": "林醫院",
    "addr": "新竹縣竹東鎮東林路76號",
    "phone": "03-5966112",
    "lat": 24.73711795,
    "lon": 121.0912195
  },
  {
    "name": "惠腎診所",
    "addr": "新竹縣竹北市光明九路9-15號",
    "phone": "03-6571515",
    "lat": 24.82336751,
    "lon": 121.0134468
  }
]