[
  {
    "name": "衛生福利部桃園醫院",
    "addr": "桃園市中山路1492號",
    "phone": "(03)3699-721",
    "lat": 24.97842952,
    "lon": 121.2685556
  },
  {
    "name": "敏盛綜合醫院",
    "addr": "桃園市經國路168號",
    "phone": "(03)3565-839",
    "lat": 25.01665321,
    "lon": 121.306136
  },
  {
    "name": "桃新醫院",
    "addr": "桃園市復興路98號",
    "phone": "(03)3325-678",
    "lat": 24.98946755,
    "lon": 121.3095906
  },
  {
    "name": "聖保祿醫院",
    "addr": "桃園市建新街123號6樓",
    "phone": "(03)3678-456",
    "lat": 24.98227888,
    "lon": 121.3125591
  },
  {
    "name": "桃園榮民醫院",
    "addr": "桃園市成功路三段100號",
    "phone": "(03)3384-160#2231",
    "lat": 25.0039821,
    "lon": 121.3252006
  },
  {
    "name": "德仁醫院",
    "addr": "桃園市桃鶯路245號",
    "phone": "(03)3711-533",
    "lat": 24.98432096,
    "lon": 121.3186326
  },
  {
    "name": "鑫庚內科診所",
    "addr": "桃園市大興西路二段76巷7號",
    "phone": "(03)3015-866",
    "lat": 25.01074019,
    "lon": 121.2972945
  },
  {
    "name": "桃庚聯合診所",
    "addr": "桃園市中山路595號",
    "phone": "(03)2205-119",
    "lat": 24.99160944,
    "lon": 121.2886004
  },
  {
    "name": "桃安診所",
    "addr": "桃園市成功路二段65號",
    "phone": "(03)3378-899",
    "lat": 24.99434999,
    "lon": 121.3162458
  },
  {
    "name": "惠民診所",
    "addr": "桃園市三民路三段282號6樓",
    "phone": "(03)3363-416",
    "lat": 24.99089737,
    "lon": 121.3065046
  },
  {
    "name": "安慧診所",
    "addr": "桃園市春日路108號",
    "phone": "(03)3356-965",
    "lat": 24.99476336,
    "lon": 121.3165712
  },
  {
    "name": "長庚紀念醫院長青院區",
    "addr": "桃園縣龜山鄉東舊路坑26-8號",
    "phone": "(03)3492-345",
    "lat": 25.02011953,
    "lon": 121.3704108
  },
  {
    "name": "林口長庚醫院",
    "addr": "桃園縣龜山鄉復興路5號",
    "phone": "(03)3281-200",
    "lat": 25.06295674,
    "lon": 121.367772
  },
  {
    "name": "長庚紀念醫院桃園分院",
    "addr": "桃園縣龜山鄉舊路村頂湖路123號",
    "phone": "(03)3711-533",
    "lat": 25.03005595,
    "lon": 121.3666034
  },
  {
    "name": "安庚內科診所",
    "addr": "桃園縣龜山鄉南祥路50號",
    "phone": "(03)3528-088",
    "lat": 25.04673878,
    "lon": 121.2978112
  },
  {
    "name": "衛生福利部樂生療養院",
    "addr": "桃園縣龜山鄉萬壽路一段50巷2號2樓",
    "phone": "(02)8200-1188",
    "lat": 25.02058474,
    "lon": 121.4078897
  },
  {
    "name": "新國民綜合醫院",
    "addr": "桃園縣中壢市復興路152號",
    "phone": "(03)4255-625",
    "lat": 24.95438911,
    "lon": 121.2234076
  },
  {
    "name": "中壢祐民醫院",
    "addr": "桃園縣中壢市民族路二段180號",
    "phone": "(03)4915-656",
    "lat": 24.95770326,
    "lon": 121.2037385
  },
  {
    "name": "天晟醫院",
    "addr": "桃園縣中壢市延平路155號",
    "phone": "(03)4343-052",
    "lat": 24.96383698,
    "lon": 121.2290692
  },
  {
    "name": "榮元診所",
    "addr": "桃園市中壢區興農路106號2-3樓",
    "phone": "(03)4627-990",
    "lat": 24.97371883,
    "lon": 121.2575288
  },
  {
    "name": "中慎診所",
    "addr": "桃園縣中壢市中山東路二段525號之7",
    "phone": "(03)4370-090",
    "lat": 24.94716015,
    "lon": 121.2461503
  },
  {
    "name": "仁祥診所",
    "addr": "桃園縣中壢市中美路15號",
    "phone": "(03)2804-203",
    "lat": 24.95932923,
    "lon": 121.2238311
  },
  {
    "name": "宏元診所",
    "addr": "桃園縣中壢市延平路429號",
    "phone": "(03)4269-069#70",
    "lat": 24.95870116,
    "lon": 121.2246009
  },
  {
    "name": "中庚診所",
    "addr": "桃園縣中壢市福德路15號",
    "phone": "(03)4550-033",
    "lat": 24.97383508,
    "lon": 121.2588678
  },
  {
    "name": "中壢長榮醫院",
    "addr": "桃園縣中壢市環東中路150號",
    "phone": "(03)4631230",
    "lat": 24.96467241,
    "lon": 121.257812
  },
  {
    "name": "敏盛醫院龍潭分院",
    "addr": "桃園縣龍潭鄉中豐路168號",
    "phone": "(03)4794-151",
    "lat": 24.87584184,
    "lon": 121.2136691
  },
  {
    "name": "陽明醫院",
    "addr": "桃園縣平鎮市延平路二段56號",
    "phone": "(03)4929-929",
    "lat": 24.95024204,
    "lon": 121.2125182
  },
  {
    "name": "壢新醫院",
    "addr": "桃園縣平鎮市廣泰路77號",
    "phone": "(03)4941-234#3830",
    "lat": 24.94695484,
    "lon": 121.2053113
  },
  {
    "name": "杏福診所",
    "addr": "桃園縣平鎮市環南路2號2F",
    "phone": "(03)4915-111",
    "lat": 24.95742843,
    "lon": 121.2066834
  },
  {
    "name": "國軍桃園總醫院",
    "addr": "桃園縣龍潭鄉九龍村中興路168號",
    "phone": "(03)4807-777#325925",
    "lat": 24.87760235,
    "lon": 121.2348772
  },
  {
    "name": "天成醫院",
    "addr": "桃園縣楊梅鎮中山北路一段356號",
    "phone": "(03)4782-350",
    "lat": 24.91195199,
    "lon": 121.1576183
  },
  {
    "name": "家誼診所",
    "addr": "桃園縣楊梅鎮中興路99號",
    "phone": "(03)4314-789",
    "lat": 24.91626793,
    "lon": 121.1820022
  },
  {
    "name": "怡仁綜合醫院",
    "addr": "桃園縣楊梅鎮新北路321巷30號2樓",
    "phone": "(03)4855-963",
    "lat": 24.91723018,
    "lon": 121.1555841
  },
  {
    "name": "衛生福利部桃園新屋分院",
    "addr": "桃園縣新屋鄉新福二路6號",
    "phone": "(03)4971-989",
    "lat": 24.97003026,
    "lon": 121.1071238
  },
  {
    "name": "聖文內科診所",
    "addr": "桃園縣八德市介壽路一段771號2樓",
    "phone": "(03)3663-063",
    "lat": 24.96657945,
    "lon": 121.3009563
  },
  {
    "name": "德禾診所",
    "addr": "桃園縣八德市介壽路三段137號2F",
    "phone": "(03)3375-368",
    "lat": 24.95463221,
    "lon": 121.298968
  },
  {
    "name": "安馨大溪診所",
    "addr": "桃園縣大溪鎮慈康路155巷15弄25號",
    "phone": "(03)3887-431",
    "lat": 24.86989426,
    "lon": 121.2888243
  },
  {
    "name": "安禾診所",
    "addr": "桃園縣蘆竹鄉中正路103號",
    "phone": "(03)2221-156",
    "lat": 25.0509641,
    "lon": 121.296401
  },
  {
    "name": "華揚醫院",
    "addr": "桃園巿中壢區中北路二段316號",
    "phone": "(03)4679-039",
    "lat": 24.95333529,
    "lon": 121.2299933
  },
  {
    "name": "懷寧醫院",
    "addr": "桃園巿中壢區志廣路119號",
    "phone": "(03)4919-119#1331",
    "lat": 24.96165787,
    "lon": 121.2054961
  },
  {
    "name": "全安診所",
    "addr": "桃園巿介壽路288號1樓",
    "phone": "(03)3763-377",
    "lat": 24.98207691,
    "lon": 121.3072851
  },
  {
    "name": "欣庚診所",
    "addr": "桃園市龜山區文化三路506號1樓",
    "phone": "(03)2114-567",
    "lat": 25.05287797,
    "lon": 121.3681469
  },
  {
    "name": "桃德診所",
    "addr": "桃園巿八德區中華路217號",
    "phone": "(03)3921-277",
    "lat": 24.98324953,
    "lon": 121.2779678
  },
  {
    "name": "桃園松禾診所",
    "addr": "桃園市大溪區埔頂路1段215號2樓",
    "phone": "(03)3806-238",
    "lat": 24.90063694,
    "lon": 121.2737394
  },
  {
    "name": "大園敏盛醫院",
    "addr": "桃園巿大園區華中街2號2樓",
    "phone": "(03)3852-933",
    "lat": 25.06250565,
    "lon": 121.1959751
  }
]
