[
  {
    "name": "慈濟綜合醫院",
    "addr": "花蓮市中央路三段707號",
    "phone": "03-8561825#2251",
    "lat": 23.99640593,
    "lon": 121.5926098
  },
  {
    "name": "衛生福利部花蓮醫院",
    "addr": "花蓮市中正路600號",
    "phone": "03-8355650#0",
    "lat": 23.97970356,
    "lon": 121.611193
  },
  {
    "name": "門諾會醫院",
    "addr": "花蓮市民權路44號",
    "phone": "03-8241280",
    "lat": 23.98804984,
    "lon": 121.6263823
  },
  {
    "name": "嘉恩診所",
    "addr": "花蓮市中華路459號5樓",
    "phone": "03-8530573",
    "lat": 23.97439325,
    "lon": 121.5903385
  },
  {
    "name": "美崙聯安診所",
    "addr": "花蓮市正義街8-2號3F",
    "phone": "038-310131",
    "lat": 23.98358035,
    "lon": 121.6063449
  },
  {
    "name": "懷德診所",
    "addr": "花蓮市復興街10號",
    "phone": "03-8344210",
    "lat": 23.97609756,
    "lon": 121.6113413
  },
  {
    "name": "花蓮玉里榮民醫院",
    "addr": "花蓮縣玉里鎮新興街91號",
    "phone": "03-8886534",
    "lat": 23.33942591,
    "lon": 121.3120738
  },
  {
    "name": "國軍花蓮總醫院",
    "addr": "花蓮縣新城鄉嘉里村嘉里路163號",
    "phone": "03-8263151#815209",
    "lat": 24.02514097,
    "lon": 121.606499
  },
  {
    "name": "劉明謙診所附設洗腎中心",
    "addr": "花蓮縣鳳林鎮中正路二段172號",
    "phone": "03-8760500",
    "lat": 23.74873781,
    "lon": 121.4498032
  },
  {
    "name": "維德診所",
    "addr": "花蓮縣玉里鎮中山路一段69號",
    "phone": "03-8886668",
    "lat": 23.32796768,
    "lon": 121.3169742
  }
]