[
  {
    "name": "衛生福利部苗栗醫院",
    "addr": "苗栗市為公路747號",
    "phone": "037-261920",
    "lat": 24.57571458,
    "lon": 120.841021
  },
  {
    "name": "大千醫院",
    "addr": "苗栗市新光街6號",
    "phone": "037-357125#2800",
    "lat": 24.55180815,
    "lon": 120.8155799
  },
  {
    "name": "台糖診所",
    "addr": "苗栗市中正路1293號",
    "phone": "037-369147",
    "lat": 24.54345537,
    "lon": 120.8168921
  },
  {
    "name": "大川醫院",
    "addr": "苗栗市中正路416號",
    "phone": "037-361858",
    "lat": 24.56082209,
    "lon": 120.8221547
  },
  {
    "name": "宏福診所",
    "addr": "苗栗市為公路440號",
    "phone": "037-277890",
    "lat": 24.57236976,
    "lon": 120.8332782
  },
  {
    "name": "國華診所",
    "addr": "苗栗市文山里國華路895號",
    "phone": "037-330225",
    "lat": 24.56816662,
    "lon": 120.814235
  },
  {
    "name": "慈祐醫院",
    "addr": "苗栗縣竹南鎮民治街17號6樓",
    "phone": "037-476589",
    "lat": 24.68501375,
    "lon": 120.8788159
  },
  {
    "name": "宏仁診所",
    "addr": "苗栗縣竹南鎮自由街110號",
    "phone": "037-552168",
    "lat": 24.6882847,
    "lon": 120.8751875
  },
  {
    "name": "重光醫院",
    "addr": "苗栗縣頭份鎮中華路1039號7F",
    "phone": "037-669367",
    "lat": 24.68670094,
    "lon": 120.9080843
  },
  {
    "name": "為恭紀念醫院",
    "addr": "苗栗縣頭份鎮仁愛路128號",
    "phone": "037-676811",
    "lat": 24.68796699,
    "lon": 120.9078734
  },
  {
    "name": "後龍聯合診所",
    "addr": "苗栗縣後龍鎮中山路123號",
    "phone": "037-773088",
    "lat": 24.61406033,
    "lon": 120.7911263
  },
  {
    "name": "通霄光田醫院",
    "addr": "苗栗縣通霄鎮中山路88號",
    "phone": "037-755127",
    "lat": 24.48920051,
    "lon": 120.67846
  },
  {
    "name": "苑裡李綜合醫院",
    "addr": "苗栗縣苑裡鎮和平路168號",
    "phone": "037-852826",
    "lat": 24.4421686,
    "lon": 120.6527006
  },
  {
    "name": "大順綜合醫院",
    "addr": "苗栗縣大湖鄉中正路48-5號",
    "phone": "037-997669",
    "lat": 24.42272021,
    "lon": 120.8676967
  },
  {
    "name": "竹南診所",
    "addr": "苗栗縣竹南鎮光復路272號",
    "phone": "037-470709",
    "lat": 24.69028109,
    "lon": 120.879757
  },
  {
    "name": "德安診所",
    "addr": "苗栗縣竹南鎮自由街110號2樓",
    "phone": "037-475608",
    "lat": 24.68837243,
    "lon": 120.8751875
  },
  {
    "name": "長春診所",
    "addr": "苗栗縣苑裡鎮大興路200號",
    "phone": "037-857168",
    "lat": 24.43779104,
    "lon": 120.6494366
  },
  {
    "name": "大順醫院",
    "addr": "苗栗縣大湖鄉中正路48-5號",
    "phone": "037-997669",
    "lat": 24.4227392,
    "lon": 120.8676653
  }
]