[
  {
    "name": "福安醫院",
    "addr": "雲林縣斗南鎮文昌路110號",
    "phone": "05-5954565",
    "lat": 23.67922293,
    "lon": 120.4819014
  },
  {
    "name": "台大醫院雲林分院虎尾院區",
    "addr": "雲林縣虎尾鎮興中里興中360號",
    "phone": "05-6330002#8251",
    "lat": 23.73529797,
    "lon": 120.4269253
  },
  {
    "name": "若瑟醫院",
    "addr": "雲林縣虎尾鎮新生路74號",
    "phone": "05-6337333",
    "lat": 23.70828132,
    "lon": 120.4373641
  },
  {
    "name": "虎尾鎮農會附設診所",
    "addr": "雲林縣虎尾鎮新興里光復路185號",
    "phone": "05-6337375",
    "lat": 23.70966397,
    "lon": 120.444592
  },
  {
    "name": "腎安診所",
    "addr": "雲林縣虎尾鎮光復路360號",
    "phone": "05-6330133",
    "lat": 23.7105898,
    "lon": 120.4366317
  },
  {
    "name": "大安診所",
    "addr": "雲林縣麥寮中山路119號5F",
    "phone": "05-6933100",
    "lat": 23.74906379,
    "lon": 120.2580059
  },
  {
    "name": "雲林長庚紀念醫院",
    "addr": "雲林縣麥寮三盛村工業路707號",
    "phone": "05-6915151#2333",
    "lat": 23.79568899,
    "lon": 120.2188309
  },
  {
    "name": "慈濟醫院斗六門診部",
    "addr": "雲林縣斗六市雲林路二段248號",
    "phone": "05-5372000#301",
    "lat": 23.70252808,
    "lon": 120.5299841
  },
  {
    "name": "台大醫院雲林分院",
    "addr": "雲林縣斗六市雲林路二段579號",
    "phone": "05-5323911",
    "lat": 23.69672239,
    "lon": 120.5261135
  },
  {
    "name": "成大醫院斗六分院",
    "addr": "雲林縣斗六市莊敬路345號",
    "phone": "05-5332121#5114",
    "lat": 23.70210956,
    "lon": 120.5457512
  },
  {
    "name": "洪揚醫院血液透析中心",
    "addr": "雲林縣斗六市文化路138號7F",
    "phone": "05-5345772",
    "lat": 23.71102895,
    "lon": 120.548828
  },
  {
    "name": "明德聯合診所",
    "addr": "雲林縣斗六市明德北路一段663號",
    "phone": "05-5347159",
    "lat": 23.71836455,
    "lon": 120.5439655
  },
  {
    "name": "宏德診所",
    "addr": "雲林縣斗六市慶生路9號",
    "phone": "05-5351155",
    "lat": 23.71266361,
    "lon": 120.5400691
  },
  {
    "name": "彰化基督教醫院雲林分院",
    "addr": "雲林縣西螺鎮新豐里新社321-90號",
    "phone": "05-5871858",
    "lat": 23.78143896,
    "lon": 120.4420321
  },
  {
    "name": "中國醫藥大學北港附設醫院",
    "addr": "雲林縣北港鎮新德路123號",
    "phone": "05-7834516",
    "lat": 23.5903308,
    "lon": 120.3072719
  },
  {
    "name": "全生醫院洗腎中心",
    "addr": "雲林縣北港鎮中正路100號6F",
    "phone": "05-7825160",
    "lat": 23.57013656,
    "lon": 120.3014997
  },
  {
    "name": "惠腎診所",
    "addr": "雲林縣北港鎮義民路186號2樓",
    "phone": "05-7820555",
    "lat": 23.57771031,
    "lon": 120.2970318
  },
  {
    "name": "崙安診所",
    "addr": "雲林縣崙背鄉南光路236號",
    "phone": "05-6965100",
    "lat": 23.7552128,
    "lon": 120.3512221
  },
  {
    "name": "螺安診所",
    "addr": "雲林縣西螺鎮建興路10號",
    "phone": "05-5865566",
    "lat": 23.79407406,
    "lon": 120.4595484
  }
]