[
  {
    "name": "惠仁醫院",
    "addr": "高雄市新興區中山一路67-2號",
    "phone": "07-2010196",
    "lat": 22.63013645,
    "lon": 120.3015047
  },
  {
    "name": "李一鳴內科診所",
    "addr": "高雄市新興區復興一路44號",
    "phone": "07-2266893",
    "lat": 22.63045015,
    "lon": 120.3082355
  },
  {
    "name": "高欣診所",
    "addr": "高雄市新興區復興一路44號2樓",
    "phone": "07-2266893",
    "lat": 22.63047986,
    "lon": 120.3082462
  },
  {
    "name": "好生診所",
    "addr": "高雄市前金區七賢二路183號",
    "phone": "07-2867000",
    "lat": 22.63335675,
    "lon": 120.2959847
  },
  {
    "name": "上順診所",
    "addr": "高雄市前金區中一路225號3樓",
    "phone": "07-2725227",
    "lat": 22.61719951,
    "lon": 120.2969948
  },
  {
    "name": "高雄市立聯合醫院大同院區",
    "addr": "高雄市前金區中華三路68號",
    "phone": "07-2618131#2321",
    "lat": 22.62761756,
    "lon": 120.2974136
  },
  {
    "name": "五福診所",
    "addr": "高雄市前金區中華四路318號1樓",
    "phone": "07-2213933",
    "lat": 22.62068978,
    "lon": 120.2994928
  },
  {
    "name": "阮綜合醫療社團法人阮綜合醫院",
    "addr": "高雄市苓雅區成功一路62號",
    "phone": "07-3342765",
    "lat": 22.61356978,
    "lon": 120.2981479
  },
  {
    "name": "國軍高雄總醫院",
    "addr": "高雄市苓雅區中正一路2號",
    "phone": "07-7496592",
    "lat": 22.62639267,
    "lon": 120.34114
  },
  {
    "name": "財團法人天主教聖功醫院",
    "addr": "高雄市苓雅區建國一路352號",
    "phone": "07-2249423",
    "lat": 22.63355954,
    "lon": 120.3240063
  },
  {
    "name": "高雄市立民生醫院",
    "addr": "高雄市苓雅區凱旋二路134號",
    "phone": "07-7511131",
    "lat": 22.62685266,
    "lon": 120.3235774
  },
  {
    "name": "財團法人高雄基督教信義醫院",
    "addr": "高雄市苓雅區華新街86號",
    "phone": "07-3321111#238",
    "lat": 22.61422087,
    "lon": 120.2963296
  },
  {
    "name": "聖安診所",
    "addr": "高雄市苓雅區大順三路186號",
    "phone": "07-7277057",
    "lat": 22.63361894,
    "lon": 120.3262296
  },
  {
    "name": "愛欣診所",
    "addr": "高雄市苓雅區正義路136號5樓",
    "phone": "07-7497077",
    "lat": 22.63103234,
    "lon": 120.3393785
  },
  {
    "name": "家綾診所",
    "addr": "高雄市苓雅區海邊路66號",
    "phone": "07-2412492",
    "lat": 22.62006338,
    "lon": 120.2921687
  },
  {
    "name": "吳三江內科診所",
    "addr": "高雄市苓雅區憲政路240號",
    "phone": "07-2222088",
    "lat": 22.63702426,
    "lon": 120.3215405
  },
  {
    "name": "昱泰診所",
    "addr": "高雄市苓雅區興中一路227號",
    "phone": "07-5378768",
    "lat": 22.61805196,
    "lon": 120.3114542
  },
  {
    "name": "佳明診所",
    "addr": "高雄市苓雅區中正一路136號",
    "phone": "07-7263727",
    "lat": 0,
    "lon": 0
  },
  {
    "name": "保順診所",
    "addr": "高雄市苓雅區成功一路145號",
    "phone": "07-2695856",
    "lat": 22.63013645,
    "lon": 120.3015047
  },
  {
    "name": "新鴻遠診所",
    "addr": "高雄市苓雅區建國一路113-2號1樓",
    "phone": "07-7229860",
    "lat": 22.63013645,
    "lon": 120.3015047
  },
  {
    "name": "高雄市立聯合醫院美術館院區",
    "addr": "高雄市鼓山區中華一路976號",
    "phone": "07-5552565",
    "lat": 22.63013645,
    "lon": 120.3015047
  },
  {
    "name": "腎美診所",
    "addr": "高雄市鼓山區中華一路336號",
    "phone": "07-5544900",
    "lat": 22.63013645,
    "lon": 120.3015047
  },
  {
    "name": "高雄市立旗津醫院",
    "addr": "高雄市旗津區廟前路1-1號",
    "phone": "07-5715101",
    "lat": 22.63013645,
    "lon": 120.3015047
  },
  {
    "name": "博佑診所",
    "addr": "高雄市前鎮區一心一路243號",
    "phone": "07-3334591",
    "lat": 22.63013645,
    "lon": 120.3015047
  },
  {
    "name": "吉泰內科診所",
    "addr": "高雄市前鎮區保泰路419號2F",
    "phone": "07-7616000#200",
    "lat": 22.63013645,
    "lon": 120.3015047
  },
  {
    "name": "安順診所",
    "addr": "高雄市前鎮區后安路263號1樓",
    "phone": "07-8128320",
    "lat": 22.63013645,
    "lon": 120.3015047
  },
  {
    "name": "佑鎮診所",
    "addr": "高雄市前鎮區樹人路128號",
    "phone": "07-8121606",
    "lat": 22.63013645,
    "lon": 120.3015047
  },
  {
    "name": "高雄醫學大學附設醫院",
    "addr": "高雄市三民區自由一路100號",
    "phone": "07-3121101",
    "lat": 22.63013645,
    "lon": 120.3015047
  },
  {
    "name": "南山醫院",
    "addr": "高雄市三民區建國三路151號",
    "phone": "07-2882105",
    "lat": 22.63013645,
    "lon": 120.3015047
  },
  {
    "name": "祐生醫院",
    "addr": "高雄市三民區建國三路60號",
    "phone": "07-2866695",
    "lat": 22.63013645,
    "lon": 120.3015047
  },
  {
    "name": "文雄醫院",
    "addr": "高雄市三民區察哈爾二街132號",
    "phone": "07-3165275",
    "lat": 22.63013645,
    "lon": 120.3015047
  },
  {
    "name": "長清診所",
    "addr": "高雄市三民區九如一路135號",
    "phone": "07-3851441",
    "lat": 22.63013645,
    "lon": 120.3015047
  },
  {
    "name": "德恩診所",
    "addr": "高雄市三民區民族一路390號",
    "phone": "07-3958282",
    "lat": 22.63013645,
    "lon": 120.3015047
  },
  {
    "name": "茂田診所",
    "addr": "高雄市三民區民誠一路236號",
    "phone": "07-3103127",
    "lat": 22.63013645,
    "lon": 120.3015047
  },
  {
    "name": "建安診所",
    "addr": "高雄市三民區大順二路649號",
    "phone": "07-3860999",
    "lat": 22.63013645,
    "lon": 120.3015047
  },
  {
    "name": "高雄新高鳳醫院",
    "addr": "高雄市三民區莊敬路288號",
    "phone": "07-3872624",
    "lat": 22.63013645,
    "lon": 120.3015047
  },
  {
    "name": "高悅診所",
    "addr": "高雄市三民區九如一路162號1樓",
    "phone": "07-3820123",
    "lat": 22.63013645,
    "lon": 120.3015047
  },
  {
    "name": "義大大昌醫院",
    "addr": "高雄市三民區大昌一路305號6樓",
    "phone": "07-5599123#7419",
    "lat": 22.63013645,
    "lon": 120.3015047
  },
  {
    "name": "僾彼高榮育仁診所",
    "addr": "高雄市三民區九如一路896號1樓",
    "phone": "07-3891080",
    "lat": 22.63013645,
    "lon": 120.3015047
  },
  {
    "name": "右昌聯合醫院",
    "addr": "高雄市楠梓區軍校路930號",
    "phone": "07-3630015",
    "lat": 22.63013645,
    "lon": 120.3015047
  },
  {
    "name": "健仁醫院",
    "addr": "高雄市楠梓區楠陽路136號",
    "phone": "07-3529393",
    "lat": 22.63013645,
    "lon": 120.3015047
  },
  {
    "name": "佑強診所",
    "addr": "高雄市楠梓區德民路908號",
    "phone": "07-3683687",
    "lat": 22.63013645,
    "lon": 120.3015047
  },
  {
    "name": "楠華診所",
    "addr": "高雄市楠梓區興楠路295號",
    "phone": "07-5715101",
    "lat": 22.63013645,
    "lon": 120.3015047
  },
  {
    "name": "興義診所",
    "addr": "高雄市楠梓區興楠路342號",
    "phone": "07-3539993",
    "lat": 22.63013645,
    "lon": 120.3015047
  },
  {
    "name": "安馨楠梓內科診所",
    "addr": "高雄市楠梓區楠都東街209號",
    "phone": "07-3529393",
    "lat": 22.63013645,
    "lon": 120.3015047
  },
  {
    "name": "佳澤診所",
    "addr": "高雄市楠梓區大學東路207號1樓",
    "phone": "07-3601262",
    "lat": 22.63013645,
    "lon": 120.3015047
  },
  {
    "name": "高雄市立小港醫院",
    "addr": "高雄市小港區山明路482號",
    "phone": "07-8036783",
    "lat": 22.63013645,
    "lon": 120.3015047
  },
  {
    "name": "佳生診所",
    "addr": "高雄市小港區康莊路136號",
    "phone": "07-8053465",
    "lat": 22.63013645,
    "lon": 120.3015047
  },
  {
    "name": "明港診所",
    "addr": "高雄市小港區華山路137號",
    "phone": "07-8055116",
    "lat": 22.63013645,
    "lon": 120.3015047
  },
  {
    "name": "高健診所",
    "addr": "高雄市小港區漢民路702號1、2樓",
    "phone": "07-8027828",
    "lat": 22.63013645,
    "lon": 120.3015047
  },
  {
    "name": "高雄榮民總醫院",
    "addr": "高雄市左營區大中一路386號",
    "phone": "07-3422121#2051",
    "lat": 22.63013645,
    "lon": 120.3015047
  },
  {
    "name": "國軍左營醫院",
    "addr": "高雄市左營區軍校路553號",
    "phone": "07-5810179",
    "lat": 22.63013645,
    "lon": 120.3015047
  },
  {
    "name": "龍華診所",
    "addr": "高雄市左營區自由二路67號",
    "phone": "07-5563868",
    "lat": 22.63013645,
    "lon": 120.3015047
  },
  {
    "name": "田源診所",
    "addr": "高雄市左營區政德路230號",
    "phone": "07-3432641",
    "lat": 22.63013645,
    "lon": 120.3015047
  },
  {
    "name": "東陽診所",
    "addr": "高雄市左營區華夏路626號",
    "phone": "07-3457778",
    "lat": 22.63013645,
    "lon": 120.3015047
  },
  {
    "name": "宗禾診所",
    "addr": "高雄市左營區博愛4路80號1樓",
    "phone": "07-3500980",
    "lat": 22.63013645,
    "lon": 120.3015047
  },
  {
    "name": "聖博診所",
    "addr": "高雄市左營區博愛三路201號3樓",
    "phone": "07-3496666",
    "lat": 22.63013645,
    "lon": 120.3015047
  },
  {
    "name": "劉內兒科診所",
    "addr": "高雄市仁武區灣內村仁心路6號",
    "phone": "07-3710778",
    "lat": 22.63013645,
    "lon": 120.3015047
  },
  {
    "name": "尚清診所",
    "addr": "高雄市仁武區中華路245號",
    "phone": "07-3758955",
    "lat": 22.63013645,
    "lon": 120.3015047
  },
  {
    "name": "國軍岡山醫院",
    "addr": "高雄市岡山區大義二路1號",
    "phone": "07-6250919",
    "lat": 22.63013645,
    "lon": 120.3015047
  },
  {
    "name": "高雄市立岡山醫院",
    "addr": "高雄市岡山區壽天路12號",
    "phone": "07-6243376",
    "lat": 22.63013645,
    "lon": 120.3015047
  },
  {
    "name": "蔣榮福診所",
    "addr": "高雄市岡山區中山南路452號",
    "phone": "07-6228719",
    "lat": 22.63013645,
    "lon": 120.3015047
  },
  {
    "name": "仁康診所",
    "addr": "高雄市岡山區介壽路74號",
    "phone": "07-6262988",
    "lat": 22.63013645,
    "lon": 120.3015047
  },
  {
    "name": "岡山內科診所",
    "addr": "高雄市岡山區岡山路146.148號",
    "phone": "07-6213371",
    "lat": 22.63013645,
    "lon": 120.3015047
  },
  {
    "name": "安泰診所",
    "addr": "高雄市岡山區岡山路434號4 F 5B",
    "phone": "07-6233500",
    "lat": 22.63013645,
    "lon": 120.3015047
  },
  {
    "name": "惠川醫院",
    "addr": "高雄市岡山區岡山路92號",
    "phone": "07-6229292",
    "lat": 22.63013645,
    "lon": 120.3015047
  },
  {
    "name": "永順診所",
    "addr": "高雄市岡山區岡山路72號1樓",
    "phone": "07-6243376",
    "lat": 22.63013645,
    "lon": 120.3015047
  },
  {
    "name": "路竹診所",
    "addr": "高雄市路竹區國昌路136號",
    "phone": "07-6975903",
    "lat": 22.63013645,
    "lon": 120.3015047
  },
  {
    "name": "義大醫療財團法人義大醫院",
    "addr": "高雄市燕巢區角宿村義大路1號",
    "phone": "07-6150011",
    "lat": 22.63013645,
    "lon": 120.3015047
  },
  {
    "name": "義大癌治療醫院",
    "addr": "高雄市燕巢區角宿里義大路21號",
    "phone": "07-615-0011#6550",
    "lat": 22.63013645,
    "lon": 120.3015047
  },
  {
    "name": "湖康診所",
    "addr": "高雄市湖內區中正路一段397號",
    "phone": "07-6997126",
    "lat": 22.63013645,
    "lon": 120.3015047
  },
  {
    "name": "高雄市立鳳山醫院",
    "addr": "高雄市鳳山區經武路42號",
    "phone": "07-7418151",
    "lat": 22.63013645,
    "lon": 120.3015047
  },
  {
    "name": "嘉美診所",
    "addr": "高雄市鳳山區中山路79號",
    "phone": "07-7413668",
    "lat": 22.63013645,
    "lon": 120.3015047
  },
  {
    "name": "長新診所",
    "addr": "高雄市鳳山區建國路二段59-2號",
    "phone": "07-7192233",
    "lat": 22.63013645,
    "lon": 120.3015047
  },
  {
    "name": "新華田內科診所",
    "addr": "高雄市鳳山區曹公路16-4號",
    "phone": "07-7999128",
    "lat": 22.63013645,
    "lon": 120.3015047
  },
  {
    "name": "佳醫診所",
    "addr": "高雄市鳳山區五甲二路357號",
    "phone": "07-7669191",
    "lat": 22.63013645,
    "lon": 120.3015047
  },
  {
    "name": "惠德醫院",
    "addr": "高雄市鳳山區福祥街81號",
    "phone": "07-8126000#1202",
    "lat": 22.63013645,
    "lon": 120.3015047
  },
  {
    "name": "高晟診所",
    "addr": "高雄市鳳山區鳳東路368號",
    "phone": "07-7823399",
    "lat": 22.63013645,
    "lon": 120.3015047
  },
  {
    "name": "揚銘診所",
    "addr": "高雄市鳳山區自由路111號1樓",
    "phone": "07-7905605",
    "lat": 22.63013645,
    "lon": 120.3015047
  },
  {
    "name": "鴻仁健康診所",
    "addr": "高雄市鳳山區青年路2段148號1樓",
    "phone": "07-7408333",
    "lat": 22.63013645,
    "lon": 120.3015047
  },
  {
    "name": "健聖診所",
    "addr": "高雄市大寮區中正路2號",
    "phone": "07-7861303",
    "lat": 22.63013645,
    "lon": 120.3015047
  },
  {
    "name": "幸安診所",
    "addr": "高雄市大寮區鳳林三路526號",
    "phone": "07-7812855",
    "lat": 22.63013645,
    "lon": 120.3015047
  },
  {
    "name": "建佑醫院",
    "addr": "高雄市林園區東林西路360號",
    "phone": "07-6418677",
    "lat": 22.63013645,
    "lon": 120.3015047
  },
  {
    "name": "高雄長庚醫院",
    "addr": "高雄市鳥松區大埤路123號",
    "phone": "07-7317123",
    "lat": 22.63013645,
    "lon": 120.3015047
  },
  {
    "name": "廣聖醫院",
    "addr": "高雄市旗山區中華路618號",
    "phone": "07-6623125",
    "lat": 22.63013645,
    "lon": 120.3015047
  },
  {
    "name": "芳民診所",
    "addr": "高雄市旗山區大德里德昌路16號",
    "phone": "07-6622355",
    "lat": 22.63013645,
    "lon": 120.3015047
  },
  {
    "name": "鴻源診所",
    "addr": "高雄市旗山區延平一路200號",
    "phone": "07-6628788",
    "lat": 22.63013645,
    "lon": 120.3015047
  },
  {
    "name": "溪洲醫院",
    "addr": "高雄市旗山區延平一路412號7F",
    "phone": "07-6622096",
    "lat": 22.63013645,
    "lon": 120.3015047
  },
  {
    "name": "衛生福利部旗山醫院",
    "addr": "高雄市旗山區大德里中學路60號",
    "phone": "07-6613811#1535",
    "lat": 22.63013645,
    "lon": 120.3015047
  },
  {
    "name": "永萣診所",
    "addr": "高雄市茄萣區白砂路251號",
    "phone": "07-6904979",
    "lat": 22.63013645,
    "lon": 120.3015047
  },
  {
    "name": "加昇診所",
    "addr": "高雄市茄萣區仁愛路三段56巷1-5號",
    "phone": "07-6900268",
    "lat": 22.63013645,
    "lon": 120.3015047
  },
  {
    "name": "高美診所",
    "addr": "高雄市美濃區成功路139號45樓",
    "phone": "07-6815566",
    "lat": 22.63013645,
    "lon": 120.3015047
  },
  {
    "name": "為好診所",
    "addr": "高雄市鼓山區九如四路957號",
    "phone": "07-5215489#112",
    "lat": 22.63013645,
    "lon": 120.3015047
  }
]